{
  "crs": {
    "type": "name",
    "properties": { "name": "urn:ogc:def:crs:OGC:1.3:CRS84" }
  },
  "features": [
    {
      "type": "Feature",
      "properties": {
        "isInLABounds": "TRUE",
        "councildist": "14",
        "facility": "Eagle Rock Dog Park",
        "address": "1100 Eagle Vista Drive Los Angeles, CA 90041",
        "cat": "dog"
      },
      "geometry": {
        "coordinates": [-118.186749, 34.141258],
        "type": "Point"
      },
      "id": "021ce67a14c3b0c861e2d36c5405c215"
    },
    {
      "type": "Feature",
      "properties": {
        "isInLABounds": "TRUE",
        "councildist": "14",
        "facility": "Ascot Hills Park",
        "address": "4371 Multnoma St. Los Angeles, CA 90032",
        "cat": "parks"
      },
      "geometry": {
        "coordinates": [-118.188922, 34.070597],
        "type": "Point"
      },
      "id": "03ae331e051f9c20fdda563e35c2ca5a"
    },
    {
      "type": "Feature",
      "properties": {
        "isInLABounds": "TRUE",
        "councildist": "7",
        "facility": "Oro Vista Park",
        "address": "11101 Oro Vista Ave, Sunland-Tujunga, CA 91040",
        "cat": "parks"
      },
      "geometry": {
        "coordinates": [-118.315924, 34.270733],
        "type": "Point"
      },
      "id": "04e3b9cefed5e3c8f1b5e766ff8f4dcc"
    },
    {
      "type": "Feature",
      "properties": {
        "isInLABounds": "TRUE",
        "councildist": "15",
        "facility": "San Pedro Plaza Park",
        "address": "7000 S. Beacon St., San Pedro, CA 90731",
        "cat": "parks"
      },
      "geometry": {
        "coordinates": [-118.280252, 33.735121],
        "type": "Point"
      },
      "id": "070a20fe51c0556a84b390643305160a"
    },
    {
      "type": "Feature",
      "properties": {
        "isInLABounds": "TRUE",
        "councildist": "4",
        "facility": "El Paseo De Cahuenga Park",
        "address": "3300 Cahuenga Blvd., Los Angeles, CA 90068",
        "cat": "parks"
      },
      "geometry": {
        "coordinates": [-118.349664, 34.130566],
        "type": "Point"
      },
      "id": "0816211ed1e3ec04981de36a2999eaa0"
    },
    {
      "type": "Feature",
      "properties": {
        "isInLABounds": "TRUE",
        "councildist": "8",
        "facility": "Little Green Acres Park-Community Garden",
        "address": "10420 S. Vermont Avenue, Los Angeles, CA 90044",
        "cat": "parks"
      },
      "geometry": {
        "coordinates": [-118.291305, 33.941639],
        "type": "Point"
      },
      "id": "0a19239a8b2a626de4a5447bb40b575f"
    },
    {
      "type": "Feature",
      "properties": {
        "isInLABounds": "TRUE",
        "councildist": "12",
        "facility": "Dearborn Park",
        "address": "17141 Nordhoff St., Northridge, CA 91325",
        "cat": "parks"
      },
      "geometry": {
        "coordinates": [-118.507927, 34.236555],
        "type": "Point"
      },
      "id": "0d07c79db0133dac92f42554ad807710"
    },
    {
      "type": "Feature",
      "properties": {
        "isInLABounds": "TRUE",
        "councildist": "6",
        "facility": "Devonshire Arleta Park",
        "address": "14215 West Devonshire St., Pacoima, CA 91331",
        "cat": "parks"
      },
      "geometry": {
        "coordinates": [-118.443143, 34.257848],
        "type": "Point"
      },
      "id": "0d3363a3049ce36bddf713795199b243"
    },
    {
      "type": "Feature",
      "properties": {
        "isInLABounds": "TRUE",
        "councildist": "15",
        "facility": "Joan Milke Flores Park",
        "address": "834 Paseo Del Mar, San Pedro, CA 90731",
        "cat": "parks"
      },
      "geometry": {
        "coordinates": [-118.296323, 33.71007],
        "type": "Point"
      },
      "id": "0d925cc81bc4b4511f8662b8b28e7c35"
    },
    {
      "type": "Feature",
      "properties": {
        "isInLABounds": "TRUE",
        "councildist": "3",
        "facility": "Warner Center Park (Warner Ranch Park)",
        "address": "5800 Topanga Canyon Blvd, Woodland Hills, CA 91367",
        "cat": "parks"
      },
      "geometry": {
        "coordinates": [-118.603463, 34.176109],
        "type": "Point"
      },
      "id": "0ebfe711c4a918fd9814ecf0ad126bc8"
    },
    {
      "type": "Feature",
      "properties": {
        "isInLABounds": "TRUE",
        "councildist": "4",
        "facility": "Griffith Park Ferraro Fields",
        "address": "John Ferraro Athletic Fields",
        "cat": "parks"
      },
      "geometry": {
        "coordinates": [-118.282967, 34.154629],
        "type": "Point"
      },
      "id": "0ecead7eb2625ce9756abe36e8a9238b"
    },
    {
      "type": "Feature",
      "properties": {
        "isInLABounds": "TRUE",
        "councildist": "5",
        "facility": "Holmby Park ( Formerly Armand Hammer )",
        "address": "601 Club View Dr., Los Angeles, CA 90024",
        "cat": "parks"
      },
      "geometry": {
        "coordinates": [-118.429396, 34.072918],
        "type": "Point"
      },
      "id": "0f0746284f3bb2de478f71bb154eb654"
    },
    {
      "type": "Feature",
      "properties": {
        "isInLABounds": "TRUE",
        "councildist": "12",
        "facility": "Porter Ridge Park",
        "address": "Reseda Boulevard and Sesnon Boulevard, Northridge, CA 91326",
        "cat": "parks"
      },
      "geometry": {
        "coordinates": [-118.543894, 34.296249],
        "type": "Point"
      },
      "id": "0fadf97eb50782d74f39a9b6249213dd"
    },
    {
      "type": "Feature",
      "properties": {
        "isInLABounds": "TRUE",
        "councildist": "15",
        "facility": "Rena Park",
        "address": "510 Leland Ave., San Pedro, CA 90732",
        "cat": "parks"
      },
      "geometry": {
        "coordinates": [-118.300687, 33.7478],
        "type": "Point"
      },
      "id": "0fb15784c506f874b3b41db749d1c91c"
    },
    {
      "type": "Feature",
      "properties": {
        "isInLABounds": "TRUE",
        "councildist": "8",
        "facility": "Jacaranda Park",
        "address": "700 E. 98th St, Los Angeles, CA 90002",
        "cat": "parks"
      },
      "geometry": {
        "coordinates": [-118.262979, 33.947499],
        "type": "Point"
      },
      "id": "0fb9097d580a3118f04318275d2dd9d5"
    },
    {
      "type": "Feature",
      "properties": {
        "isInLABounds": "TRUE",
        "councildist": "9",
        "facility": "Julian C. Dixon Park ( Formerly 48Th Street Park )",
        "address": "4800 South Hoover, Los Angeles, CA 90037",
        "cat": "parks"
      },
      "geometry": {
        "coordinates": [-118.286774, 33.999259],
        "type": "Point"
      },
      "id": "0fc313eebcff3668e478834f92dac774"
    },
    {
      "type": "Feature",
      "properties": {
        "isInLABounds": "TRUE",
        "councildist": "14",
        "facility": "Los Angeles Plaza Park",
        "address": "125 Paseo De La Plaza, Los Angeles, CA 90012",
        "cat": "parks"
      },
      "geometry": {
        "coordinates": [-118.238769, 34.056557],
        "type": "Point"
      },
      "id": "0fde84443ba9ca4794ff38e58085d0f3"
    },
    {
      "type": "Feature",
      "properties": {
        "isInLABounds": "TRUE",
        "councildist": "12",
        "facility": "Oakridge Estate Park",
        "address": "18650 Devonshire St, Northridge, CA 91324",
        "cat": "parks"
      },
      "geometry": {
        "coordinates": [-118.540336, 34.256229],
        "type": "Point"
      },
      "id": "10451bcee7e70209aa5213706bd78dc5"
    },
    {
      "type": "Feature",
      "properties": {
        "isInLABounds": "TRUE",
        "councildist": "11",
        "facility": "Temescal Canyon Park",
        "address": "15900 Pacific Coast Hwy., Pacific Palisades, CA 90272",
        "cat": "parks"
      },
      "geometry": {
        "coordinates": [-118.52579, 34.057371],
        "type": "Point"
      },
      "id": "10662df037e5e42535762647661d9bef"
    },
    {
      "type": "Feature",
      "properties": {
        "isInLABounds": "TRUE",
        "councildist": "4",
        "facility": "Libbit Park",
        "address": "5101 Libbitt Ave., Van Nuys, CA 91436",
        "cat": "parks"
      },
      "geometry": {
        "coordinates": [-118.488319, 34.161886],
        "type": "Point"
      },
      "id": "107519b0e54a6caafa042dc81c323680"
    },
    {
      "type": "Feature",
      "properties": {
        "isInLABounds": "TRUE",
        "councildist": "6",
        "facility": "Delano Recreation Center",
        "address": "15100 Erwin St., Van Nuys, CA 91411",
        "cat": "parks"
      },
      "geometry": {
        "coordinates": [-118.462386, 34.182525],
        "type": "Point"
      },
      "id": "11630258105a9d6dc5653f4292693a6b"
    },
    {
      "type": "Feature",
      "properties": {
        "isInLABounds": "TRUE",
        "councildist": "1",
        "facility": "St. James Park",
        "address": "Adams Blvd. and Severance St., Los Angeles, CA 90007",
        "cat": "parks"
      },
      "geometry": {
        "coordinates": [-118.279793, 34.031431],
        "type": "Point"
      },
      "id": "11f775be441fd2a490d1ce2a11ccbfc0"
    },
    {
      "type": "Feature",
      "properties": {
        "isInLABounds": "TRUE",
        "councildist": "12",
        "facility": "Moonshine Canyon Park",
        "address": "19900 W. Sesnon Blvd., Northridge, CA 91326",
        "cat": "parks"
      },
      "geometry": {
        "coordinates": [-118.56849, 34.288843],
        "type": "Point"
      },
      "id": "123f331be59ce9ad333ca0a535cf607c"
    },
    {
      "type": "Feature",
      "properties": {
        "isInLABounds": "TRUE",
        "councildist": "15",
        "facility": "White Point Park (Nature Preserve)",
        "address": "1600 W. Paseo del Mar, San Pedro, CA 90731",
        "cat": "parks"
      },
      "geometry": {
        "coordinates": [-118.321606, 33.718123],
        "type": "Point"
      },
      "id": "133bce5e344d862f2398f6d181669c5f"
    },
    {
      "type": "Feature",
      "properties": {
        "isInLABounds": "TRUE",
        "councildist": "4",
        "facility": "Runyon Canyon Dog Park",
        "address": "2000 N Fuller Avenue Los Angeles, CA 90046",
        "cat": "dog"
      },
      "geometry": {
        "coordinates": [-118.349157, 34.105385],
        "type": "Point"
      },
      "id": "13e9a37f6e231e8b490c43cc78e5b322"
    },
    {
      "type": "Feature",
      "properties": {
        "isInLABounds": "TRUE",
        "councildist": "4",
        "facility": "Griffith Park Dog Park",
        "address": "Located at north end of the John Ferraro Soccer Field on North Zoo Drive, Los Angeles, CA 90027",
        "cat": "dog"
      },
      "geometry": {
        "coordinates": [-118.283001, 34.154475],
        "type": "Point"
      },
      "id": "14cc17bc2a7767fc60b00fc0f9203d8e"
    },
    {
      "type": "Feature",
      "properties": {
        "isInLABounds": "TRUE",
        "councildist": "1",
        "facility": "Hope And Peace Park",
        "address": "843 S. Bonnie Brae St., Los Angeles, CA 90057",
        "cat": "parks"
      },
      "geometry": {
        "coordinates": [-118.276689, 34.052752],
        "type": "Point"
      },
      "id": "1525c0b8af025f41ba85bc57b38a7cf5"
    },
    {
      "type": "Feature",
      "properties": {
        "isInLABounds": "TRUE",
        "councildist": "9",
        "facility": "South Park Recreation Center (A.K.A. Barry White)",
        "address": "345 E. 51st St., Los Angeles, CA 90011",
        "cat": "parks"
      },
      "geometry": {
        "coordinates": [-118.268605, 33.996562],
        "type": "Point"
      },
      "id": "1726671cca647f5b0895cb7955a8cd31"
    },
    {
      "type": "Feature",
      "properties": {
        "isInLABounds": "TRUE",
        "councildist": "12",
        "facility": "Bee Canyon Park",
        "address": "13150 Sesnon Blvd., Granada Hills, CA 91344",
        "cat": "parks"
      },
      "geometry": {
        "coordinates": [-118.508657, 34.307816],
        "type": "Point"
      },
      "id": "1741182747f44dc7e8be9bf57f70e3ef"
    },
    {
      "type": "Feature",
      "properties": {
        "isInLABounds": "TRUE",
        "councildist": "12",
        "facility": "Knapp Ranch Park",
        "address": "25000 W. Kittridge St., West Hills, CA 91307",
        "cat": "parks"
      },
      "geometry": {
        "coordinates": [-118.660411, 34.188521],
        "type": "Point"
      },
      "id": "1757dfc0764875980ac021e118779b76"
    },
    {
      "type": "Feature",
      "properties": {
        "isInLABounds": "TRUE",
        "councildist": "15",
        "facility": "East Wilmington Greenbelt Pocket Park",
        "address": "1300 E. O St., Wilmington, CA 90744",
        "cat": "parks"
      },
      "geometry": {
        "coordinates": [-118.246031, 33.788711],
        "type": "Point"
      },
      "id": "19576f10a29d6e539f69cfab133794ef"
    },
    {
      "type": "Feature",
      "properties": {
        "isInLABounds": "TRUE",
        "councildist": "13",
        "facility": "Echo Park Lake",
        "address": "751 Echo Park Ave., Los Angeles, CA 90026",
        "cat": "parks"
      },
      "geometry": {
        "coordinates": [-118.259994, 34.073304],
        "type": "Point"
      },
      "id": "19866f7e8b6683781aa883881339116d"
    },
    {
      "type": "Feature",
      "properties": {
        "isInLABounds": "TRUE",
        "councildist": "4",
        "facility": "Griffith Park",
        "address": "4730 Crystal Springs Drive, Los Angeles, CA 90027",
        "cat": "parks"
      },
      "geometry": {
        "coordinates": [-118.2942, 34.136554],
        "type": "Point"
      },
      "id": "19da630ea4b02bc3c74c82b0d71a63cd"
    },
    {
      "type": "Feature",
      "properties": {
        "isInLABounds": "TRUE",
        "councildist": "12",
        "facility": "Wilbur-Tampa Park",
        "address": "12001 Wilbur Ave., Northridge, CA 91326",
        "cat": "parks"
      },
      "geometry": {
        "coordinates": [-118.55713, 34.289421],
        "type": "Point"
      },
      "id": "1a7704b7ea80fd34898c5cf543bde3d7"
    },
    {
      "type": "Feature",
      "properties": {
        "isInLABounds": "TRUE",
        "councildist": "12",
        "facility": "Eddleston Park",
        "address": "11662 Reseda Blvd, Porter Ranch, CA 91326",
        "cat": "parks"
      },
      "geometry": {
        "coordinates": [-118.532921, 34.285576],
        "type": "Point"
      },
      "id": "1af3ba007e2cd28101aef37dbd579098"
    },
    {
      "type": "Feature",
      "properties": {
        "isInLABounds": "TRUE",
        "councildist": "1",
        "facility": "Patton Street Park",
        "address": "327 Patton St Los Angeles, CA 90026",
        "cat": "parks"
      },
      "geometry": {
        "coordinates": [-118.259065, 34.065898],
        "type": "Point"
      },
      "id": "1affdd37c42614a3410e6cc133598d7e"
    },
    {
      "type": "Feature",
      "properties": {
        "isInLABounds": "TRUE",
        "councildist": "3",
        "facility": "Serrania Park",
        "address": "20726 Wells Dr., Woodland Hills, CA 91364",
        "cat": "parks"
      },
      "geometry": {
        "coordinates": [-118.586292, 34.157019],
        "type": "Point"
      },
      "id": "1b5b13fa1a463bf34705ef39082be88f"
    },
    {
      "type": "Feature",
      "properties": {
        "isInLABounds": "TRUE",
        "councildist": "1",
        "facility": "Vista Hermosa Park",
        "address": "100 N. Toluca St., Los Angeles, CA 90026",
        "cat": "parks"
      },
      "geometry": {
        "coordinates": [-118.256885, 34.061873],
        "type": "Point"
      },
      "id": "1c0d2ef3aee4d6abb40404c863bd4351"
    },
    {
      "type": "Feature",
      "properties": {
        "isInLABounds": "TRUE",
        "councildist": "5",
        "facility": "Media Park",
        "address": "9070 W. Venice Blvd., Culver City, CA 90232",
        "cat": "parks"
      },
      "geometry": {
        "coordinates": [-118.392938, 34.026453],
        "type": "Point"
      },
      "id": "1ebdd1185ad65dccffcfa14ddfa9a24a"
    },
    {
      "type": "Feature",
      "properties": {
        "isInLABounds": "TRUE",
        "councildist": "1",
        "facility": "Greayer'S Oak Mini Park",
        "address": "3711 N Figueroa St., Los Angeles, CA 90065",
        "cat": "parks"
      },
      "geometry": {
        "coordinates": [-118.212602, 34.090706],
        "type": "Point"
      },
      "id": "1f23e7ad28870a26f2f14a385c4ca700"
    },
    {
      "type": "Feature",
      "properties": {
        "isInLABounds": "TRUE",
        "councildist": "13",
        "facility": "Bellevue Recreation Center",
        "address": "826 Lucile Ave., Los Angeles, CA 90026",
        "cat": "parks"
      },
      "geometry": {
        "coordinates": [-118.282849, 34.0841],
        "type": "Point"
      },
      "id": "2322f6623ad90b56f9a5c320b4891a36"
    },
    {
      "type": "Feature",
      "properties": {
        "isInLABounds": "TRUE",
        "councildist": "5",
        "facility": "Pan Pacific Park",
        "address": "7600 Beverly Blvd., Los Angeles, CA 90036",
        "cat": "parks"
      },
      "geometry": {
        "coordinates": [-118.35466, 34.075802],
        "type": "Point"
      },
      "id": "234decba435fc539dddcb5ba08720217"
    },
    {
      "type": "Feature",
      "properties": {
        "isInLABounds": "TRUE",
        "councildist": "8",
        "facility": "Curtis Roland Park",
        "address": "1287 West 38th Place, Los Angeles, CA 90037",
        "cat": "parks"
      },
      "geometry": {
        "coordinates": [-118.300028, 34.016628],
        "type": "Point"
      },
      "id": "23727f788d81b335d8fb747e0692be15"
    },
    {
      "type": "Feature",
      "properties": {
        "isInLABounds": "TRUE",
        "councildist": "3",
        "facility": "L.A.P.D. S.W.A.T. Officer Randal D. Simmons Park (Formerly West Valley Park)",
        "address": "6731 Wilbur Ave., Reseda, CA 91335",
        "cat": "parks"
      },
      "geometry": {
        "coordinates": [-118.545879, 34.192951],
        "type": "Point"
      },
      "id": "2445e68c7b70656d606cd07f307c6be8"
    },
    {
      "type": "Feature",
      "properties": {
        "isInLABounds": "TRUE",
        "councildist": "5",
        "facility": "Cheviot Hills Recreation Center",
        "address": "2551 Motor Ave., Los Angeles, CA 90064",
        "cat": "parks"
      },
      "geometry": {
        "coordinates": [-118.409852, 34.046091],
        "type": "Point"
      },
      "id": "24ecd8f8076d417e655434b0f6e0c21a"
    },
    {
      "type": "Feature",
      "properties": {
        "isInLABounds": "TRUE",
        "councildist": "7",
        "facility": "Stetson Ranch Park",
        "address": "15455 Glenoaks Blvd., Sylmar, CA 91342",
        "cat": "parks"
      },
      "geometry": {
        "coordinates": [-118.469662, 34.32386],
        "type": "Point"
      },
      "id": "26906c412782233626838072bff489c4"
    },
    {
      "type": "Feature",
      "properties": {
        "isInLABounds": "TRUE",
        "councildist": "12",
        "facility": "Zelzah Park",
        "address": "11690 Zelzah Ave., Granada Hills, CA 91344",
        "cat": "parks"
      },
      "geometry": {
        "coordinates": [-118.524712, 34.282711],
        "type": "Point"
      },
      "id": "28608b25b55904faa34587592df00cb3"
    },
    {
      "type": "Feature",
      "properties": {
        "isInLABounds": "TRUE",
        "councildist": "14",
        "facility": "East Los Angeles Park",
        "address": "2500 N. Eastlake Ave., Los Angeles, CA 90031",
        "cat": "parks"
      },
      "geometry": {
        "coordinates": [-118.243684, 34.052234],
        "type": "Point"
      },
      "id": "2a107138b56c0bb496a7617c032e9894"
    },
    {
      "type": "Feature",
      "properties": {
        "isInLABounds": "TRUE",
        "councildist": "4",
        "facility": "Sherman Oaks Castle Park",
        "address": "4989 Sepulveda Boulevard, Sherman Oaks, CA 91403",
        "cat": "parks"
      },
      "geometry": {
        "coordinates": [-118.468146, 34.162194],
        "type": "Point"
      },
      "id": "2a4c08098ce9771b98df8a5938d6bd9e"
    },
    {
      "type": "Feature",
      "properties": {
        "isInLABounds": "TRUE",
        "councildist": "5",
        "facility": "Woodbine Park",
        "address": "3409 S. Vinton Ave., Los Angeles, CA 90034",
        "cat": "parks"
      },
      "geometry": {
        "coordinates": [-118.408508, 34.027956],
        "type": "Point"
      },
      "id": "2a4df933dd30e265744fd9d9c6ef9c1d"
    },
    {
      "type": "Feature",
      "properties": {
        "isInLABounds": "TRUE",
        "councildist": "2",
        "facility": "Whitsett Fields Park",
        "address": "12240 Archwood St., North Hollywood, CA 91605",
        "cat": "parks"
      },
      "geometry": {
        "coordinates": [-118.400541, 34.191922],
        "type": "Point"
      },
      "id": "2a8eefc121532529e95639d0969cb1c9"
    },
    {
      "type": "Feature",
      "properties": {
        "isInLABounds": "TRUE",
        "councildist": "7",
        "facility": "Brand Park",
        "address": "15174 San Fernando Mission Rd., Mission Hills, CA 91345",
        "cat": "parks"
      },
      "geometry": {
        "coordinates": [-118.462068, 34.272396],
        "type": "Point"
      },
      "id": "2bfe9c0237b58d8e64a5da70b8121ad5"
    },
    {
      "type": "Feature",
      "properties": {
        "isInLABounds": "TRUE",
        "councildist": "4",
        "facility": "Cedar Grove",
        "address": "Vista Del Valle, Los Angeles, CA 90027",
        "cat": "parks"
      },
      "geometry": {
        "coordinates": [-118.282596, 34.120161],
        "type": "Point"
      },
      "id": "2c313ff658999d5b209919cb7718ed60"
    },
    {
      "type": "Feature",
      "properties": {
        "isInLABounds": "TRUE",
        "councildist": "15",
        "facility": "Alma Park",
        "address": "W. 21st St. and Meyler St., San Pedro, CA 90731",
        "cat": "parks"
      },
      "geometry": {
        "coordinates": [-118.297425, 33.725071],
        "type": "Point"
      },
      "id": "2c4a28a00f690d78acaf86e38943bbdf"
    },
    {
      "type": "Feature",
      "properties": {
        "isInLABounds": "TRUE",
        "councildist": "13",
        "facility": "North Atwater Park",
        "address": "3900 W. Chevy Chase Dr., Los Angeles, CA 90039",
        "cat": "parks"
      },
      "geometry": {
        "coordinates": [-118.272122, 34.132805],
        "type": "Point"
      },
      "id": "2e0e4b036439fb6778e43950fe84e064"
    },
    {
      "type": "Feature",
      "properties": {
        "isInLABounds": "TRUE",
        "councildist": "10",
        "facility": "Washington Irving Pocket Park",
        "address": "4103 W. Washington Blvd., Los Angeles, CA 90018",
        "cat": "parks"
      },
      "geometry": {
        "coordinates": [-118.32857, 34.040112],
        "type": "Point"
      },
      "id": "2e4dc27a78608f24b0f4b76f1584959b"
    },
    {
      "type": "Feature",
      "properties": {
        "isInLABounds": "TRUE",
        "councildist": "14",
        "facility": "El Sereno Arroyo Playground",
        "address": "5520 Concord Ave, Los Angeles, CA 90032",
        "cat": "parks"
      },
      "geometry": {
        "coordinates": [-118.161823, 34.079753],
        "type": "Point"
      },
      "id": "30090999b480fb9cb4fd88df0df9a099"
    },
    {
      "type": "Feature",
      "properties": {
        "isInLABounds": "TRUE",
        "councildist": "14",
        "facility": "Grand Hope Park",
        "address": "919 S Grand Ave (Suite 102P), Los Angeles, CA 90015",
        "cat": "parks"
      },
      "geometry": {
        "coordinates": [-118.26052, 34.044378],
        "type": "Point"
      },
      "id": "31ae3b342378f0c19bcce71516d930b2"
    },
    {
      "type": "Feature",
      "properties": {
        "isInLABounds": "TRUE",
        "councildist": "10",
        "facility": "Westside Neighborhood Park",
        "address": "3085 Clyde Ave., Los Angeles, CA 90016",
        "cat": "parks"
      },
      "geometry": {
        "coordinates": [-118.370199, 34.029507],
        "type": "Point"
      },
      "id": "337f1b4336f725e552eb5af897ecfba9"
    },
    {
      "type": "Feature",
      "properties": {
        "isInLABounds": "TRUE",
        "councildist": "14",
        "facility": "Hermon Park In The Arroyo Seco Dog Park",
        "address": "5566 Via Marisol Los Angeles, CA 90042",
        "cat": "dog"
      },
      "geometry": {
        "coordinates": [-118.186133, 34.104592],
        "type": "Point"
      },
      "id": "36961147b0343eb15a7609fe2e35bdcf"
    },
    {
      "type": "Feature",
      "properties": {
        "isInLABounds": "TRUE",
        "councildist": "9",
        "facility": "Expo Center - Exposition Park Rose Garden",
        "address": "701 State Drive, Los Angeles, CA 90037",
        "cat": "parks"
      },
      "geometry": {
        "coordinates": [-118.285924, 34.01735],
        "type": "Point"
      },
      "id": "37cf3909b7ca81f5dcdd21e4b73fd0fe"
    },
    {
      "type": "Feature",
      "properties": {
        "isInLABounds": "TRUE",
        "councildist": "6",
        "facility": "Tobias Avenue Park",
        "address": "9122 Tobias Avenue, Panorama City, CA 91402",
        "cat": "parks"
      },
      "geometry": {
        "coordinates": [-118.450988, 34.236386],
        "type": "Point"
      },
      "id": "37edb380a32da7ebc4941fc6e4246820"
    },
    {
      "type": "Feature",
      "properties": {
        "isInLABounds": "TRUE",
        "councildist": "15",
        "facility": "Averill Park",
        "address": "1300 Dodson Ave., San Pedro, CA 90732",
        "cat": "parks"
      },
      "geometry": {
        "coordinates": [-118.310395, 33.732605],
        "type": "Point"
      },
      "id": "399f238b857eba75acd9acae551c75bd"
    },
    {
      "type": "Feature",
      "properties": {
        "isInLABounds": "TRUE",
        "councildist": "15",
        "facility": "Ken Malloy Harbor Regional Park",
        "address": "25820 Vermont Ave., Harbor City, CA 90710",
        "cat": "parks"
      },
      "geometry": {
        "coordinates": [-118.294876, 33.783516],
        "type": "Point"
      },
      "id": "3aa85b1f971a2dc81073e2a1327844fa"
    },
    {
      "type": "Feature",
      "properties": {
        "isInLABounds": "TRUE",
        "councildist": "15",
        "facility": "Lookout Point Park",
        "address": "3515 S. Gaffey St., San Pedro, CA 90731",
        "cat": "parks"
      },
      "geometry": {
        "coordinates": [-118.2921, 33.712276],
        "type": "Point"
      },
      "id": "3aef6709749c54b27171912c74dae92e"
    },
    {
      "type": "Feature",
      "properties": {
        "isInLABounds": "TRUE",
        "councildist": "7",
        "facility": "Fehlhaber-Houk Park",
        "address": "9521 Tujunga Canyon Blvd., Tujunga, CA 91042",
        "cat": "parks"
      },
      "geometry": {
        "coordinates": [-118.273675, 34.240688],
        "type": "Point"
      },
      "id": "3b074f3d1e6e77bd525f905abb7f8522"
    },
    {
      "type": "Feature",
      "properties": {
        "isInLABounds": "TRUE",
        "councildist": "8",
        "facility": "Chesterfield Square Park",
        "address": "1950 W. 54th St., Los Angeles, CA 90062",
        "cat": "parks"
      },
      "geometry": {
        "coordinates": [-118.31311, 33.992824],
        "type": "Point"
      },
      "id": "3c62915988bd66366dd3238213ae3a6d"
    },
    {
      "type": "Feature",
      "properties": {
        "isInLABounds": "TRUE",
        "councildist": "15",
        "facility": "Point Fermin Park",
        "address": "807 Paseo Del Mar, San Pedro, CA 90731",
        "cat": "parks"
      },
      "geometry": {
        "coordinates": [-118.293334, 33.706306],
        "type": "Point"
      },
      "id": "3c804d8bb6a98ef8beb99ce5b304480c"
    },
    {
      "type": "Feature",
      "properties": {
        "isInLABounds": "TRUE",
        "councildist": "7",
        "facility": "Verdugo Mountain Park",
        "address": "East of Sunland, South of La Tuna Canyon Rd., Los Angeles, CA 91352",
        "cat": "parks"
      },
      "geometry": {
        "coordinates": [-118.352038, 34.230156],
        "type": "Point"
      },
      "id": "3d11eafb70e4a490470937c20882a822"
    },
    {
      "type": "Feature",
      "properties": {
        "isInLABounds": "TRUE",
        "councildist": "13",
        "facility": "Madison Avenue Park And Community Garden",
        "address": "1177 N Madison Ave, Los Angeles, CA 90029",
        "cat": "parks"
      },
      "geometry": {
        "coordinates": [-118.28965, 34.093104],
        "type": "Point"
      },
      "id": "3dbb8b635a1041142059da8608937d07"
    },
    {
      "type": "Feature",
      "properties": {
        "isInLABounds": "TRUE",
        "councildist": "12",
        "facility": "Cohasset Melba Park",
        "address": "7449 Melba Ave., West Hills, CA 91307",
        "cat": "parks"
      },
      "geometry": {
        "coordinates": [-118.634572, 34.205288],
        "type": "Point"
      },
      "id": "3dec9e9bd17d56c3b5ab66700efcb8f0"
    },
    {
      "type": "Feature",
      "properties": {
        "isInLABounds": "TRUE",
        "councildist": "14",
        "facility": "Prospect Park",
        "address": "Echandia Street & Judson Street, Los Angeles, CA 90033",
        "cat": "parks"
      },
      "geometry": {
        "coordinates": [-118.217772, 34.053528],
        "type": "Point"
      },
      "id": "3e02ee3dccdb70eeebbed0e0e54cdd79"
    },
    {
      "type": "Feature",
      "properties": {
        "isInLABounds": "TRUE",
        "councildist": "14",
        "facility": "Hollenbeck Park",
        "address": "415 South Saint Louis St., Los Angeles, CA 90033",
        "cat": "parks"
      },
      "geometry": {
        "coordinates": [-118.217999, 34.040269],
        "type": "Point"
      },
      "id": "3fc5a45651f191d94b3b54b32d4dedc0"
    },
    {
      "type": "Feature",
      "properties": {
        "isInLABounds": "TRUE",
        "councildist": "13",
        "facility": "La Mirada Park",
        "address": "5401 LA MIRADA AVE LOS ANGELES, CA 90029",
        "cat": "parks"
      },
      "geometry": {
        "coordinates": [-118.30697, 34.094195],
        "type": "Point"
      },
      "id": "3fff28e063d37ed25040ed8c58f3129f"
    },
    {
      "type": "Feature",
      "properties": {
        "isInLABounds": "TRUE",
        "councildist": "4",
        "facility": "Bronson Canyon",
        "address": "3200 Canyon Dr., Los Angeles, CA 90068",
        "cat": "parks"
      },
      "geometry": {
        "coordinates": [-118.314337, 34.12133],
        "type": "Point"
      },
      "id": "40221bb8b767e9b4f203c6cc29ab3305"
    },
    {
      "type": "Feature",
      "properties": {
        "isInLABounds": "TRUE",
        "councildist": "1",
        "facility": "Lacy Street Neighborhood Park",
        "address": "Avenue 26 and Lacy Street, (Next to the Pasadena Freeway) Los Angeles, CA 90031",
        "cat": "parks"
      },
      "geometry": {
        "coordinates": [-118.220224, 34.082357],
        "type": "Point"
      },
      "id": "40296f5ac2d178a1ea825c8ea3b071e7"
    },
    {
      "type": "Feature",
      "properties": {
        "isInLABounds": "FALSE",
        "councildist": "",
        "facility": "Denker And Torrance Park",
        "address": "1490 W Torrance Blvd, Torrance, CA 90502",
        "cat": "parks"
      },
      "geometry": {
        "coordinates": [-118.289961, 33.842024],
        "type": "Point"
      },
      "id": "40d5151295598c3bb1510aa9900be3cc"
    },
    {
      "type": "Feature",
      "properties": {
        "isInLABounds": "TRUE",
        "councildist": "9",
        "facility": "Vermont And Gage Park",
        "address": "960 W 62nd Pl Los Angeles, CA 90044",
        "cat": "parks"
      },
      "geometry": {
        "coordinates": [-118.290663, 33.98233],
        "type": "Point"
      },
      "id": "40e2deda6dc0aed72f19a61be5c65e5f"
    },
    {
      "type": "Feature",
      "properties": {
        "isInLABounds": "TRUE",
        "councildist": "13",
        "facility": "Barnsdall Art Park",
        "address": "4800 Hollywood Blvd., Los Angeles, CA 90027",
        "cat": "parks"
      },
      "geometry": {
        "coordinates": [-118.294392, 34.1004],
        "type": "Point"
      },
      "id": "4276e6a80137f573f5a41eea12443509"
    },
    {
      "type": "Feature",
      "properties": {
        "isInLABounds": "TRUE",
        "councildist": "11",
        "facility": "Via Dolce Park",
        "address": "3503 Via Dolce, Marina Del Rey, CA 90292",
        "cat": "parks"
      },
      "geometry": {
        "coordinates": [-118.462112, 33.978294],
        "type": "Point"
      },
      "id": "48ccbc96d3d39c87d7cd9fc8374fe2a5"
    },
    {
      "type": "Feature",
      "properties": {
        "isInLABounds": "TRUE",
        "councildist": "12",
        "facility": "Holleigh Bernson Memorial Park",
        "address": "20500 Sesnon Blvd, Porter Ranch, CA 91326",
        "cat": "parks"
      },
      "geometry": {
        "coordinates": [-118.571408, 34.291928],
        "type": "Point"
      },
      "id": "4cb9d08a4b1470fbbf69696f98e2907b"
    },
    {
      "type": "Feature",
      "properties": {
        "isInLABounds": "FALSE",
        "councildist": "",
        "facility": "Veterans' Barrington Park",
        "address": "333 South Barrington Ave., Los Angeles CA 90049",
        "cat": "parks"
      },
      "geometry": {
        "coordinates": [-118.467198, 34.062201],
        "type": "Point"
      },
      "id": "4d8e35360e2120e2a85257f68550710f"
    },
    {
      "type": "Feature",
      "properties": {
        "isInLABounds": "TRUE",
        "councildist": "9",
        "facility": "Vermont Square Park",
        "address": "1248 W. 47th St., Los Angeles, CA 90037",
        "cat": "parks"
      },
      "geometry": {
        "coordinates": [-118.297364, 34.000356],
        "type": "Point"
      },
      "id": "4db6cdb505d92d3dfc7f1a1672fd6f50"
    },
    {
      "type": "Feature",
      "properties": {
        "isInLABounds": "TRUE",
        "councildist": "15",
        "facility": "Los Angeles Sister Cities Plaza",
        "address": "406 North Gaffey St, Los Angeles, CA 900731",
        "cat": "parks"
      },
      "geometry": {
        "coordinates": [-118.292169, 33.746314],
        "type": "Point"
      },
      "id": "4e84d3d0ee99a54ef0a41697db91f8e3"
    },
    {
      "type": "Feature",
      "properties": {
        "isInLABounds": "TRUE",
        "councildist": "5",
        "facility": "La High Memorial Park",
        "address": "4625 West Olympic Blvd., Los Angeles, CA 90019",
        "cat": "parks"
      },
      "geometry": {
        "coordinates": [-118.33156, 34.057347],
        "type": "Point"
      },
      "id": "4f6fb540630668faeea5081ec3dcb4bf"
    },
    {
      "type": "Feature",
      "properties": {
        "isInLABounds": "TRUE",
        "councildist": "11",
        "facility": "Triangle Park",
        "address": "Oxford Ave and Marr St, Venice, CA 90291",
        "cat": "parks"
      },
      "geometry": {
        "coordinates": [-118.45633, 33.987567],
        "type": "Point"
      },
      "id": "51508bafb281fa529f68fcb6a0680d4d"
    },
    {
      "type": "Feature",
      "properties": {
        "isInLABounds": "TRUE",
        "councildist": "11",
        "facility": "Rivas Canyon Park",
        "address": "Easterly Terminus of Oracle Pl., Pacific Palisades, CA 90272",
        "cat": "parks"
      },
      "geometry": {
        "coordinates": [-118.519968, 34.058826],
        "type": "Point"
      },
      "id": "5546e09a68a74cfe034534fbb2700fc8"
    },
    {
      "type": "Feature",
      "properties": {
        "isInLABounds": "TRUE",
        "councildist": "10",
        "facility": "West Adams Heights Park",
        "address": "1903 WEST CORDOVA LOS ANGELES , CA 90018",
        "cat": "parks"
      },
      "geometry": {
        "coordinates": [-118.300439, 34.039299],
        "type": "Point"
      },
      "id": "58e520aa14f78aca196a5b807de956f2"
    },
    {
      "type": "Feature",
      "properties": {
        "isInLABounds": "TRUE",
        "councildist": "4",
        "facility": "Wattles Garden Park",
        "address": "1850 North Curson Ave., Hollywood, CA 90046",
        "cat": "parks"
      },
      "geometry": {
        "coordinates": [-118.354709, 34.104873],
        "type": "Point"
      },
      "id": "59bb3229ee9e3068ee84809e7cfc4a6a"
    },
    {
      "type": "Feature",
      "properties": {
        "isInLABounds": "TRUE",
        "councildist": "1",
        "facility": "Buena Vista Meadow Picnic Area",
        "address": "Meadow Road (East Side of Dodger Stadium) Los Angeles, CA 90012",
        "cat": "parks"
      },
      "geometry": {
        "coordinates": [-118.239958, 34.073851],
        "type": "Point"
      },
      "id": "5a1ed1a2c19c86514789884edbed6594"
    },
    {
      "type": "Feature",
      "properties": {
        "isInLABounds": "TRUE",
        "councildist": "12",
        "facility": "Chatsworth Oaks Park",
        "address": "9301 Valley Circle Blvd., Chatsworth, CA 91311",
        "cat": "parks"
      },
      "geometry": {
        "coordinates": [-118.629048, 34.239895],
        "type": "Point"
      },
      "id": "5a6656130cbfafb87a1c5d5d4e69c3a5"
    },
    {
      "type": "Feature",
      "properties": {
        "isInLABounds": "TRUE",
        "councildist": "4",
        "facility": "Ceta Forest",
        "address": "5201 Zoo Drive, Los Angeles, CA 90027",
        "cat": "parks"
      },
      "geometry": {
        "coordinates": [-118.30165, 34.155758],
        "type": "Point"
      },
      "id": "5b071c2d473ec2d07f07894a35c78da7"
    },
    {
      "type": "Feature",
      "properties": {
        "isInLABounds": "TRUE",
        "councildist": "12",
        "facility": "Sean Brown Park (Formerly Chase Park)",
        "address": "22525 Chase St., West Hills, CA 91304",
        "cat": "parks"
      },
      "geometry": {
        "coordinates": [-118.618092, 34.223337],
        "type": "Point"
      },
      "id": "5bfccc2330f3c1d9c1afb8ee96656dce"
    },
    {
      "type": "Feature",
      "properties": {
        "isInLABounds": "TRUE",
        "councildist": "11",
        "facility": "Titmouse Park",
        "address": "415 Culver Blvd., Playa Del Rey, CA 90293 (at Nicholson Street and Pershing Drive)",
        "cat": "parks"
      },
      "geometry": {
        "coordinates": [-118.445927, 33.961134],
        "type": "Point"
      },
      "id": "5bfd73d0f7ae36e7646495e1361c8192"
    },
    {
      "type": "Feature",
      "properties": {
        "isInLABounds": "TRUE",
        "councildist": "10",
        "facility": "Reynier Park",
        "address": "2803 Reynier Ave., Los Angeles, CA 90034",
        "cat": "parks"
      },
      "geometry": {
        "coordinates": [-118.386459, 34.035458],
        "type": "Point"
      },
      "id": "5c25dd2447035ccde29931e1a9f22ec7"
    },
    {
      "type": "Feature",
      "properties": {
        "isInLABounds": "TRUE",
        "councildist": "9",
        "facility": "South Los Angeles Wetlands Park",
        "address": "5413 S Avalon Blvd, Los Angeles, CA 90011",
        "cat": "parks"
      },
      "geometry": {
        "coordinates": [-118.266219, 33.992725],
        "type": "Point"
      },
      "id": "5c95b34d0473be5fe3c65afbb9e9a5c4"
    },
    {
      "type": "Feature",
      "properties": {
        "isInLABounds": "TRUE",
        "councildist": "2",
        "facility": "Valley Glen Community Park (Formerly Erwin Park)",
        "address": "Erwin St.and Ethel Ave., Van Nuys, CA 91436",
        "cat": "parks"
      },
      "geometry": {
        "coordinates": [-118.419273, 34.182448],
        "type": "Point"
      },
      "id": "5d3e87f58b17672b16d8c5c91d69a1e1"
    },
    {
      "type": "Feature",
      "properties": {
        "isInLABounds": "TRUE",
        "councildist": "2",
        "facility": "De Garmo Park",
        "address": "10145 Arminta St., Sun Valley, CA 91352",
        "cat": "parks"
      },
      "geometry": {
        "coordinates": [-118.35286, 34.215336],
        "type": "Point"
      },
      "id": "5eac4a434029f52a9bb92477938f5dd4"
    },
    {
      "type": "Feature",
      "properties": {
        "isInLABounds": "TRUE",
        "councildist": "14",
        "facility": "Eagle Rock Child Care Building",
        "address": "1102 Eagle Vista Dr. Los Angeles, CA 90041",
        "cat": "parks"
      },
      "geometry": {
        "coordinates": [-118.189181, 34.142689],
        "type": "Point"
      },
      "id": "5f345a9767805ee1332820df662be857"
    },
    {
      "type": "Feature",
      "properties": {
        "isInLABounds": "TRUE",
        "councildist": "1",
        "facility": "Macarthur Park",
        "address": "2230 W. 6th St., Los Angeles, CA 90057",
        "cat": "parks"
      },
      "geometry": {
        "coordinates": [-118.279427, 34.058428],
        "type": "Point"
      },
      "id": "61805715a59b436a4f336ab54f9ccf91"
    },
    {
      "type": "Feature",
      "properties": {
        "isInLABounds": "TRUE",
        "councildist": "4",
        "facility": "Runyon Canyon Park",
        "address": "2000 N. Fuller Ave., Los Angeles, CA 90046",
        "cat": "parks"
      },
      "geometry": {
        "coordinates": [-118.351235, 34.112406],
        "type": "Point"
      },
      "id": "62a6b114387d90c28ec3a861f8a2df9e"
    },
    {
      "type": "Feature",
      "properties": {
        "isInLABounds": "TRUE",
        "councildist": "13",
        "facility": "Chavez Ravine Arboretum",
        "address": "Chavez Ravine Rd, Los Angeles, CA 90012",
        "cat": "parks"
      },
      "geometry": {
        "coordinates": [-118.246031, 34.085277],
        "type": "Point"
      },
      "id": "62c8909a1e1f00db6d81a21fbfc53b15"
    },
    {
      "type": "Feature",
      "properties": {
        "isInLABounds": "TRUE",
        "councildist": "15",
        "facility": "Harbor City Park",
        "address": "24901 Frampton Ave., Harbor City, CA 90710",
        "cat": "parks"
      },
      "geometry": {
        "coordinates": [-118.299284, 33.798444],
        "type": "Point"
      },
      "id": "62ec004af9d445c3d6c84d65fa4fc6f1"
    },
    {
      "type": "Feature",
      "properties": {
        "isInLABounds": "TRUE",
        "councildist": "7",
        "facility": "Devonwood Park",
        "address": "10230 Woodman Ave., Panorama City, CA 91345",
        "cat": "parks"
      },
      "geometry": {
        "coordinates": [-118.453665, 34.256142],
        "type": "Point"
      },
      "id": "63a4e9d952387d93164477e3f19ba9cc"
    },
    {
      "type": "Feature",
      "properties": {
        "isInLABounds": "TRUE",
        "councildist": "11",
        "facility": "Bill Rosendahl Del Rey Park",
        "address": "4601 Alla Rd., Los Angeles, CA 90292",
        "cat": "parks"
      },
      "geometry": {
        "coordinates": [-118.432256, 33.985956],
        "type": "Point"
      },
      "id": "63ca9c70ce2c15f602bef9898b234f34"
    },
    {
      "type": "Feature",
      "properties": {
        "isInLABounds": "TRUE",
        "councildist": "2",
        "facility": "Fulton Avenue Park",
        "address": "13255 Vanowen St., North Hollywood, CA 91605",
        "cat": "parks"
      },
      "geometry": {
        "coordinates": [-118.422243, 34.19439],
        "type": "Point"
      },
      "id": "65cfc35fd61995a979082316008a1ed1"
    },
    {
      "type": "Feature",
      "properties": {
        "isInLABounds": "TRUE",
        "councildist": "15",
        "facility": "Wilder'S Addition Park",
        "address": "607 Paseo Del Mar, San Pedro, CA 90731",
        "cat": "parks"
      },
      "geometry": {
        "coordinates": [-118.301239, 33.711058],
        "type": "Point"
      },
      "id": "662ef2f64a52b3086518e947f979a042"
    },
    {
      "type": "Feature",
      "properties": {
        "isInLABounds": "TRUE",
        "councildist": "2",
        "facility": "Woodbridge Park",
        "address": "11240 Moorpark St., Studio City, CA 91602",
        "cat": "parks"
      },
      "geometry": {
        "coordinates": [-118.376151, 34.149243],
        "type": "Point"
      },
      "id": "6716dfbdfd7a0bba262b183084c86a0e"
    },
    {
      "type": "Feature",
      "properties": {
        "isInLABounds": "TRUE",
        "councildist": "1",
        "facility": "Montecillo De Leo Politi Park",
        "address": "On Stadium between Scott Road & Academy Road, Los Angeles, CA 90012",
        "cat": "parks"
      },
      "geometry": {
        "coordinates": [-118.2466, 34.078254],
        "type": "Point"
      },
      "id": "6769cdf018f22234c8ca21c1a17f4c81"
    },
    {
      "type": "Feature",
      "properties": {
        "isInLABounds": "TRUE",
        "councildist": "10",
        "facility": "Mascot Park",
        "address": "Mascot Street and Pickford Street, Los Angeles, CA 90019",
        "cat": "parks"
      },
      "geometry": {
        "coordinates": [-118.341903, 34.040938],
        "type": "Point"
      },
      "id": "6837dcf36e2d7135c2ab560b8c014db3"
    },
    {
      "type": "Feature",
      "properties": {
        "isInLABounds": "TRUE",
        "councildist": "5",
        "facility": "Westwood Dog Park",
        "address": "1350 Sepulveda Blvd Los Angeles, CA 90025",
        "cat": "dog"
      },
      "geometry": {
        "coordinates": [-118.448345, 34.053436],
        "type": "Point"
      },
      "id": "68a52e4568757a2fcd0b3b711bd9fe00"
    },
    {
      "type": "Feature",
      "properties": {
        "isInLABounds": "TRUE",
        "councildist": "8",
        "facility": "Norman O. Houston Park",
        "address": "4800 South La Brea, Los Angeles, CA 90008",
        "cat": "parks"
      },
      "geometry": {
        "coordinates": [-118.357608, 33.999155],
        "type": "Point"
      },
      "id": "6b9057dcb4421cc80537e51dd00e002e"
    },
    {
      "type": "Feature",
      "properties": {
        "isInLABounds": "TRUE",
        "councildist": "11",
        "facility": "Santa Ynez Canyon Park",
        "address": "Palisades Dr. and De Santa Ynez, Pacific Palisades, CA 90272",
        "cat": "parks"
      },
      "geometry": {
        "coordinates": [-118.560364, 34.06897],
        "type": "Point"
      },
      "id": "6c0cee7cd2ef24afd31c751f76cc64be"
    },
    {
      "type": "Feature",
      "properties": {
        "isInLABounds": "TRUE",
        "councildist": "1",
        "facility": "Ernest E. Debs Regional Park",
        "address": "4235 Monterey Road, Los Angeles, CA 90032",
        "cat": "parks"
      },
      "geometry": {
        "coordinates": [-118.193561, 34.091056],
        "type": "Point"
      },
      "id": "6c30208efc38cac62b9204ee03544b2f"
    },
    {
      "type": "Feature",
      "properties": {
        "isInLABounds": "TRUE",
        "councildist": "6",
        "facility": "Lake Balboa / Anthony C. Beilenson Park",
        "address": "6300 Balboa Blvd, Lake Balboa, CA 91406",
        "cat": "parks"
      },
      "geometry": {
        "coordinates": [-118.49847, 34.181399],
        "type": "Point"
      },
      "id": "6c7e28e23ec3f71a44bd850f08fc2f6c"
    },
    {
      "type": "Feature",
      "properties": {
        "isInLABounds": "TRUE",
        "councildist": "10",
        "facility": "Leimert Plaza Park",
        "address": "4395 Leimert Blvd., Los Angeles, CA 90008",
        "cat": "parks"
      },
      "geometry": {
        "coordinates": [-118.331458, 34.003939],
        "type": "Point"
      },
      "id": "6c964f3a7de6b81e4194e09bc6865e38"
    },
    {
      "type": "Feature",
      "properties": {
        "isInLABounds": "TRUE",
        "councildist": "7",
        "facility": "Haines Canyon Park",
        "address": "7021 Arama Avenue, Tujunga, CA 91042",
        "cat": "parks"
      },
      "geometry": {
        "coordinates": [-118.284341, 34.24064],
        "type": "Point"
      },
      "id": "6cadf12d5ed17685f345e5b7caedfd2e"
    },
    {
      "type": "Feature",
      "properties": {
        "isInLABounds": "TRUE",
        "councildist": "15",
        "facility": "Field Of Dreams",
        "address": "Corner of Gaffey Street and Westmont, San Pedro, CA 90731",
        "cat": "parks"
      },
      "geometry": {
        "coordinates": [-118.291026, 33.763005],
        "type": "Point"
      },
      "id": "6db4cfdb4fe5cae702d17f6616674e6a"
    },
    {
      "type": "Feature",
      "properties": {
        "isInLABounds": "TRUE",
        "councildist": "9",
        "facility": "61St Street Pocket Park",
        "address": "139 East 61st Street, Los Angeles, CA 90003",
        "cat": "parks"
      },
      "geometry": {
        "coordinates": [-118.272464, 33.984448],
        "type": "Point"
      },
      "id": "70ec67eb8c8a9fb7bab5e4a0b8a55295"
    },
    {
      "type": "Feature",
      "properties": {
        "isInLABounds": "TRUE",
        "councildist": "12",
        "facility": "Stoney Point Park",
        "address": "On Topanga Canyon Blvd. between Chatsworth St. and 118 Freeway, Chatsworth, CA 91311",
        "cat": "parks"
      },
      "geometry": {
        "coordinates": [-118.60241, 34.273547],
        "type": "Point"
      },
      "id": "7226ad40ea3559655799c3b84adbc6eb"
    },
    {
      "type": "Feature",
      "properties": {
        "isInLABounds": "TRUE",
        "councildist": "12",
        "facility": "Van Norman Lakes Reservoir",
        "address": "15800 Rinaldi Street, Granada Hills, CA 91344",
        "cat": "parks"
      },
      "geometry": {
        "coordinates": [-118.481651, 34.280198],
        "type": "Point"
      },
      "id": "726fccbded8a80c80c5815e3aa5e5017"
    },
    {
      "type": "Feature",
      "properties": {
        "isInLABounds": "TRUE",
        "councildist": "11",
        "facility": "San Vicente Mountain Park",
        "address": "17500 Mulholland Dr., Los Angeles, CA 90272",
        "cat": "parks"
      },
      "geometry": {
        "coordinates": [-118.513241, 34.128446],
        "type": "Point"
      },
      "id": "7307d656deb7118637b378e9dd02e3ad"
    },
    {
      "type": "Feature",
      "properties": {
        "isInLABounds": "TRUE",
        "councildist": "12",
        "facility": "Chatsworth Park North",
        "address": "22300 Chatsworth St., Chatsworth, CA 91311",
        "cat": "parks"
      },
      "geometry": {
        "coordinates": [-118.612292, 34.262814],
        "type": "Point"
      },
      "id": "73e03b8cfe80ffe4217e061961d6bdd2"
    },
    {
      "type": "Feature",
      "properties": {
        "isInLABounds": "TRUE",
        "councildist": "1",
        "facility": "Lilac Terrace Park (Aka Victory Memorial Grove Park)",
        "address": "1254 W. Lilac Terrace., Los Angeles, CA 90012",
        "cat": "parks"
      },
      "geometry": {
        "coordinates": [-118.249599, 34.074431],
        "type": "Point"
      },
      "id": "7476646c45e89004b0a850eb41867999"
    },
    {
      "type": "Feature",
      "properties": {
        "isInLABounds": "TRUE",
        "councildist": "3",
        "facility": "Quimby Park",
        "address": "7008 De Soto Ave Canoga Park, CA 91306",
        "cat": "parks"
      },
      "geometry": {
        "coordinates": [-118.588004, 34.198271],
        "type": "Point"
      },
      "id": "74d0920e209766a51321bbc6f19960ca"
    },
    {
      "type": "Feature",
      "properties": {
        "isInLABounds": "TRUE",
        "councildist": "15",
        "facility": "Angels Gate Park",
        "address": "3601 Gaffey St., San Pedro, CA 90731",
        "cat": "parks"
      },
      "geometry": {
        "coordinates": [-118.293369, 33.713337],
        "type": "Point"
      },
      "id": "751deb2614da7d83b93e692e32b05ffd"
    },
    {
      "type": "Feature",
      "properties": {
        "isInLABounds": "TRUE",
        "councildist": "5",
        "facility": "Briarwood Park",
        "address": "461 Almaden Court, Los Angeles, CA 90077",
        "cat": "parks"
      },
      "geometry": {
        "coordinates": [-118.443847, 34.119248],
        "type": "Point"
      },
      "id": "7524ab9c4bf349ad4c43b58ca0c5e3f2"
    },
    {
      "type": "Feature",
      "properties": {
        "isInLABounds": "TRUE",
        "councildist": "8",
        "facility": "Circle Park",
        "address": "76th St. at South Gramercy, Los Angeles, CA",
        "cat": "parks"
      },
      "geometry": {
        "coordinates": [-118.313384, 33.970914],
        "type": "Point"
      },
      "id": "7662dfac60da7c54efb2ea69f5487d88"
    },
    {
      "type": "Feature",
      "properties": {
        "isInLABounds": "TRUE",
        "councildist": "2",
        "facility": "Villa Cabrini Park",
        "address": "9401 Cabrini Drive West, Sun Valley, CA 91504",
        "cat": "parks"
      },
      "geometry": {
        "coordinates": [-118.338524, 34.215339],
        "type": "Point"
      },
      "id": "767be7e1e3f580ed82a7039e9c2dc78b"
    },
    {
      "type": "Feature",
      "properties": {
        "isInLABounds": "TRUE",
        "councildist": "14",
        "facility": "City Hall Park Center",
        "address": "200 North Main St., Los Angeles, CA 90012",
        "cat": "parks"
      },
      "geometry": {
        "coordinates": [-118.243639, 34.052907],
        "type": "Point"
      },
      "id": "77a11b84ca4f00ef1407d12ecbcd15d7"
    },
    {
      "type": "Feature",
      "properties": {
        "isInLABounds": "TRUE",
        "councildist": "9",
        "facility": "Central Avenue Pocket Park",
        "address": "4222 Central Ave., Los Angeles, CA 90011",
        "cat": "parks"
      },
      "geometry": {
        "coordinates": [-118.255962, 34.006831],
        "type": "Point"
      },
      "id": "7864e2a971baf932954bacac9465ef27"
    },
    {
      "type": "Feature",
      "properties": {
        "isInLABounds": "TRUE",
        "councildist": "4",
        "facility": "Lake Hollywood Park",
        "address": "3160 Canyon Lake Drive, Los Angeles, CA 90068",
        "cat": "parks"
      },
      "geometry": {
        "coordinates": [-118.326105, 34.126944],
        "type": "Point"
      },
      "id": "7a69013e0fd976db0e1ed739e27d9def"
    },
    {
      "type": "Feature",
      "properties": {
        "isInLABounds": "TRUE",
        "councildist": "14",
        "facility": "Lincoln Park",
        "address": "3501 Valley Blvd., Los Angeles, CA 90031",
        "cat": "parks"
      },
      "geometry": {
        "coordinates": [-118.200762, 34.066548],
        "type": "Point"
      },
      "id": "7ac601f0b1d424a6ebe00409ac2e8405"
    },
    {
      "type": "Feature",
      "properties": {
        "isInLABounds": "TRUE",
        "councildist": "3",
        "facility": "Parthenia Park",
        "address": "21444 Parthenia St., Canoga Park, CA 91304",
        "cat": "parks"
      },
      "geometry": {
        "coordinates": [-118.598899, 34.227708],
        "type": "Point"
      },
      "id": "7b53e2803ec8c4509754da8e218e31c5"
    },
    {
      "type": "Feature",
      "properties": {
        "isInLABounds": "TRUE",
        "councildist": "4",
        "facility": "Wilacre Park",
        "address": "12601 Mulholland Dr., Studio City, CA 91604 (Adjacent to Coldwater Canyon Park)",
        "cat": "parks"
      },
      "geometry": {
        "coordinates": [-118.391856, 34.133219],
        "type": "Point"
      },
      "id": "7cf1b9008fe80f9bbfc59c7d67b9f658"
    },
    {
      "type": "Feature",
      "properties": {
        "isInLABounds": "TRUE",
        "councildist": "10",
        "facility": "Country Club Heritage Plaza (Aka Wilton Place Park)",
        "address": "1015 S Wilton Place Los Angeles, CA 90018",
        "cat": "parks"
      },
      "geometry": {
        "coordinates": [-118.314825, 34.05247],
        "type": "Point"
      },
      "id": "7dc0158fb3d2a1bc4bcbb774240d1009"
    },
    {
      "type": "Feature",
      "properties": {
        "isInLABounds": "TRUE",
        "councildist": "11",
        "facility": "Sullivan Canyon Park",
        "address": "Northeast of Sullivan Canyon Rd. Los Angeles, CA 90049",
        "cat": "parks"
      },
      "geometry": {
        "coordinates": [-118.510637, 34.075696],
        "type": "Point"
      },
      "id": "7e65332a7c9c99700ea64d5d51b1f17c"
    },
    {
      "type": "Feature",
      "properties": {
        "isInLABounds": "TRUE",
        "councildist": "14",
        "facility": "Spring Street Park",
        "address": "428 SOUTH SPRING STREET LOS ANGELES, CA 90013",
        "cat": "parks"
      },
      "geometry": {
        "coordinates": [-118.248584, 34.04797],
        "type": "Point"
      },
      "id": "822839ab9a5f1379cf667465a5c4dcc7"
    },
    {
      "type": "Feature",
      "properties": {
        "isInLABounds": "TRUE",
        "councildist": "3",
        "facility": "Costanso Fire Station 84 Park",
        "address": "5340 Canoga Ave Los Angeles, CA 91364",
        "cat": "parks"
      },
      "geometry": {
        "coordinates": [-118.597324, 34.167197],
        "type": "Point"
      },
      "id": "8231a06e6bb4fcbb085507c38232f838"
    },
    {
      "type": "Feature",
      "properties": {
        "isInLABounds": "TRUE",
        "councildist": "7",
        "facility": "Kagel Canyon Park",
        "address": "11435 Kagel Canyon St., Lake View Terrace, CA 91342",
        "cat": "parks"
      },
      "geometry": {
        "coordinates": [-118.381073, 34.280813],
        "type": "Point"
      },
      "id": "82cca17ade95341ae61eeeca83363ee3"
    },
    {
      "type": "Feature",
      "properties": {
        "isInLABounds": "TRUE",
        "councildist": "13",
        "facility": "Juntos Park",
        "address": "3135 Drew St., Los Angeles, CA 90065",
        "cat": "parks"
      },
      "geometry": {
        "coordinates": [-118.246032, 34.118633],
        "type": "Point"
      },
      "id": "8483e1a442e5d3197c84fe676cd07626"
    },
    {
      "type": "Feature",
      "properties": {
        "isInLABounds": "TRUE",
        "councildist": "14",
        "facility": "Hazard Recreation Center",
        "address": "2230 Norfolk St., Los Angeles, CA 90033",
        "cat": "parks"
      },
      "geometry": {
        "coordinates": [-118.202011, 34.059543],
        "type": "Point"
      },
      "id": "8567cbcdc3a98cce11e5b9aeea99c8dd"
    },
    {
      "type": "Feature",
      "properties": {
        "isInLABounds": "TRUE",
        "councildist": "12",
        "facility": "Roscoe-Valley Circle Park",
        "address": "Valley Circle & Roscoe Blvd., Canoga Park, CA 91307",
        "cat": "parks"
      },
      "geometry": {
        "coordinates": [-118.650543, 34.217968],
        "type": "Point"
      },
      "id": "8588ede106493662cbafd5ecb6b6404e"
    },
    {
      "type": "Feature",
      "properties": {
        "isInLABounds": "TRUE",
        "councildist": "1",
        "facility": "Sycamore Grove Park",
        "address": "4702 N. Figueroa St., Los Angeles, CA 90042",
        "cat": "parks"
      },
      "geometry": {
        "coordinates": [-118.203317, 34.100093],
        "type": "Point"
      },
      "id": "8624430c29dbab8b4bb211e5f41261f8"
    },
    {
      "type": "Feature",
      "properties": {
        "isInLABounds": "TRUE",
        "councildist": "4",
        "facility": "Bird Sanctuary",
        "address": "2900 N. Vermont Ave., Los Angeles, CA 90027",
        "cat": "parks"
      },
      "geometry": {
        "coordinates": [-118.29376, 34.118063],
        "type": "Point"
      },
      "id": "8638271927f1fa636d5c44e121f1d8a6"
    },
    {
      "type": "Feature",
      "properties": {
        "isInLABounds": "TRUE",
        "councildist": "8",
        "facility": "97Th Street Park",
        "address": "554 West 97th Street, Los Angeles, CA 90044",
        "cat": "parks"
      },
      "geometry": {
        "coordinates": [-118.284701, 33.948053],
        "type": "Point"
      },
      "id": "87d911fbf02ba6467b65fcadb1975f6a"
    },
    {
      "type": "Feature",
      "properties": {
        "isInLABounds": "TRUE",
        "councildist": "8",
        "facility": "Vermont Miracle Park",
        "address": "956 W 81st St, Los Angeles, CA 90044",
        "cat": "parks"
      },
      "geometry": {
        "coordinates": [-118.291115, 33.96529],
        "type": "Point"
      },
      "id": "8c35f8216ef7dce270cb2c53253eb2a4"
    },
    {
      "type": "Feature",
      "properties": {
        "isInLABounds": "TRUE",
        "councildist": "13",
        "facility": "Selma Park",
        "address": "6567 Selma Ave. (Corner of Selma and Schrader), Los Angeles, CA 90028",
        "cat": "parks"
      },
      "geometry": {
        "coordinates": [-118.332816, 34.099886],
        "type": "Point"
      },
      "id": "8c77a15c1b6be4213b4f58b44a77987b"
    },
    {
      "type": "Feature",
      "properties": {
        "isInLABounds": "TRUE",
        "councildist": "8",
        "facility": "South Victoria Avenue Park",
        "address": "6537 South Victoria Avenue Los Angeles, CA 90043",
        "cat": "parks"
      },
      "geometry": {
        "coordinates": [-118.33275, 33.97944],
        "type": "Point"
      },
      "id": "8cc91bebb4dfbca56a2a1354f7bc0525"
    },
    {
      "type": "Feature",
      "properties": {
        "isInLABounds": "TRUE",
        "councildist": "1",
        "facility": "Everett Triangle Park (A.K.A Tear Drop Park)",
        "address": "Everett St. One Block North of Sunset, Echo Park, CA 90026",
        "cat": "parks"
      },
      "geometry": {
        "coordinates": [-118.249028, 34.068978],
        "type": "Point"
      },
      "id": "8ce0ac85b3b46c3765e8993f460280c0"
    },
    {
      "type": "Feature",
      "properties": {
        "isInLABounds": "TRUE",
        "councildist": "3",
        "facility": "Los Angeles River & Aliso Creek Confluence Park",
        "address": "Kittridge St & Archwood St, Reseda, CA 91335",
        "cat": "parks"
      },
      "geometry": {
        "coordinates": [-118.542511, 34.190187],
        "type": "Point"
      },
      "id": "8d5d3437a7acf6115af4946a2b914ac3"
    },
    {
      "type": "Feature",
      "properties": {
        "isInLABounds": "TRUE",
        "councildist": "4",
        "facility": "Bond Area",
        "address": "Los Feliz Blvd., Los Angeles, CA 90027",
        "cat": "parks"
      },
      "geometry": {
        "coordinates": [-118.286271, 34.112117],
        "type": "Point"
      },
      "id": "8ee087839bf4a06f0a14aa021e8a1bce"
    },
    {
      "type": "Feature",
      "properties": {
        "isInLABounds": "TRUE",
        "councildist": "9",
        "facility": "49Th Street Park",
        "address": "670 E. 49th St. Los Angeles, CA 90011",
        "cat": "parks"
      },
      "geometry": {
        "coordinates": [-118.263488, 33.998359],
        "type": "Point"
      },
      "id": "91d6ccf7493b5b96921d012023b8e0f6"
    },
    {
      "type": "Feature",
      "properties": {
        "isInLABounds": "TRUE",
        "councildist": "13",
        "facility": "De Longpre Park",
        "address": "1350 N. Cherokee Ave., Los Angeles, CA 90028",
        "cat": "parks"
      },
      "geometry": {
        "coordinates": [-118.334734, 34.095772],
        "type": "Point"
      },
      "id": "93d5dbc3449b2d89e21a3478359665d5"
    },
    {
      "type": "Feature",
      "properties": {
        "isInLABounds": "TRUE",
        "councildist": "11",
        "facility": "Del Rey Lagoon",
        "address": "6660 Esplanade Place, Playa Del Rey, CA 90293",
        "cat": "parks"
      },
      "geometry": {
        "coordinates": [-118.451174, 33.961137],
        "type": "Point"
      },
      "id": "94499a8e886c4333c58fc1dd9120d9e9"
    },
    {
      "type": "Feature",
      "properties": {
        "isInLABounds": "TRUE",
        "councildist": "2",
        "facility": "Jaime Beth Slavin Park",
        "address": "7965 Whitsett Ave., No. Hollywood, CA 91605",
        "cat": "parks"
      },
      "geometry": {
        "coordinates": [-118.406927, 34.215487],
        "type": "Point"
      },
      "id": "94db0199a1e75e8f7447cca2c3d3a1e0"
    },
    {
      "type": "Feature",
      "properties": {
        "isInLABounds": "TRUE",
        "councildist": "5",
        "facility": "Unidad Park (Beverly Pocket Park)",
        "address": "1644 West Beverly Boulevard, Los Angeles, CA 90027",
        "cat": "parks"
      },
      "geometry": {
        "coordinates": [-118.354149, 34.07558],
        "type": "Point"
      },
      "id": "953a6107fbb8630071b250c33098d32b"
    },
    {
      "type": "Feature",
      "properties": {
        "isInLABounds": "TRUE",
        "councildist": "5",
        "facility": "De Neve Square Park",
        "address": "314 Beverly Glen Blvd., Los Angeles, CA 90077",
        "cat": "parks"
      },
      "geometry": {
        "coordinates": [-118.434767, 34.084587],
        "type": "Point"
      },
      "id": "965de14a6bf6c7ea0dec9bb42ec08015"
    },
    {
      "type": "Feature",
      "properties": {
        "isInLABounds": "TRUE",
        "councildist": "15",
        "facility": "Peck Park",
        "address": "560 North Western Ave., San Pedro, CA 90732",
        "cat": "parks"
      },
      "geometry": {
        "coordinates": [-118.308017, 33.748875],
        "type": "Point"
      },
      "id": "965f4d1f8aedfb879b9de1b1ab754d40"
    },
    {
      "type": "Feature",
      "properties": {
        "isInLABounds": "TRUE",
        "councildist": "8",
        "facility": "Angeles Mesa Park",
        "address": "2929 West 48th St., Los Angeles, CA 90037",
        "cat": "parks"
      },
      "geometry": {
        "coordinates": [-118.325448, 34.000209],
        "type": "Point"
      },
      "id": "9754041dd500ead64f46bef5ee4fb82c"
    },
    {
      "type": "Feature",
      "properties": {
        "isInLABounds": "TRUE",
        "councildist": "14",
        "facility": "Hermon Park (Arroyo Seco Park)",
        "address": "5566 Via Marisol, Los Angeles, CA 90042",
        "cat": "parks"
      },
      "geometry": {
        "coordinates": [-118.186775, 34.105535],
        "type": "Point"
      },
      "id": "9825074e0db450a20ba29686c677c08b"
    },
    {
      "type": "Feature",
      "properties": {
        "isInLABounds": "TRUE",
        "councildist": "14",
        "facility": "Ross Valencia Community Park",
        "address": "E 1st St and N Chicago St., Los Angeles, CA 90033",
        "cat": "parks"
      },
      "geometry": {
        "coordinates": [-118.212039, 34.044669],
        "type": "Point"
      },
      "id": "9842d9d83af118361a7cf678a0dc4aa0"
    },
    {
      "type": "Feature",
      "properties": {
        "isInLABounds": "TRUE",
        "councildist": "14",
        "facility": "Bud Wiener Park",
        "address": "Via Marisol Btwn. Vias Colina & Arbolada, Los Angeles, CA 90042",
        "cat": "parks"
      },
      "geometry": {
        "coordinates": [-118.183426, 34.098115],
        "type": "Point"
      },
      "id": "986b1276f3bcd3f08e0ce8a0784e6e86"
    },
    {
      "type": "Feature",
      "properties": {
        "isInLABounds": "TRUE",
        "councildist": "13",
        "facility": "Lake Street Park",
        "address": "227 N. Lake St., Los Angeles, CA 90026",
        "cat": "parks"
      },
      "geometry": {
        "coordinates": [-118.270614, 34.069354],
        "type": "Point"
      },
      "id": "98f309209300146df9d50574adae1d3e"
    },
    {
      "type": "Feature",
      "properties": {
        "isInLABounds": "TRUE",
        "councildist": "8",
        "facility": "Richardson Family Park",
        "address": "2700 S. Budlong Ave., Los Angeles, CA 90007",
        "cat": "parks"
      },
      "geometry": {
        "coordinates": [-118.295632, 34.030215],
        "type": "Point"
      },
      "id": "993c27f275ed78939e3411a45be094dc"
    },
    {
      "type": "Feature",
      "properties": {
        "isInLABounds": "FALSE",
        "councildist": "",
        "facility": "Browns Creek Park",
        "address": "Browns Canyon Rd. Chatworth, CA 91311",
        "cat": "parks"
      },
      "geometry": {
        "coordinates": [-118.605877, 34.307622],
        "type": "Point"
      },
      "id": "993f29f52106cfe61c574ab469763f93"
    },
    {
      "type": "Feature",
      "properties": {
        "isInLABounds": "TRUE",
        "councildist": "14",
        "facility": "Highland Park Recreation Center",
        "address": "6150 Piedmont Ave., Los Angeles, CA 90042",
        "cat": "parks"
      },
      "geometry": {
        "coordinates": [-118.187799, 34.113273],
        "type": "Point"
      },
      "id": "9a285bcd7457cfe4d9f0af764b72b59c"
    },
    {
      "type": "Feature",
      "properties": {
        "isInLABounds": "TRUE",
        "councildist": "6",
        "facility": "Sepulveda Basin Off-Leash Dog Park",
        "address": "17550 Victory Blvd., Encino,CA 91406",
        "cat": "dog"
      },
      "geometry": {
        "coordinates": [-118.514777, 34.18576],
        "type": "Point"
      },
      "id": "9ae6ba3325486b1d596e3684403fe4c4"
    },
    {
      "type": "Feature",
      "properties": {
        "isInLABounds": "TRUE",
        "councildist": "2",
        "facility": "Dave Potell Memorial Sports Facility",
        "address": "11455 Magnolia Blvd., North Hollywood, CA 91601",
        "cat": "parks"
      },
      "geometry": {
        "coordinates": [-118.382298, 34.166728],
        "type": "Point"
      },
      "id": "9b057035f6b0a2275c1b0bc3da0c39ea"
    },
    {
      "type": "Feature",
      "properties": {
        "isInLABounds": "TRUE",
        "councildist": "2",
        "facility": "Kittridge Mini Park",
        "address": "6565 Greenbush Ave., Van Nuys, CA 91401",
        "cat": "parks"
      },
      "geometry": {
        "coordinates": [-118.425939, 34.190227],
        "type": "Point"
      },
      "id": "9b1d62c88282894b6c4af8185787c636"
    },
    {
      "type": "Feature",
      "properties": {
        "isInLABounds": "TRUE",
        "councildist": "7",
        "facility": "Howard Finn Park",
        "address": "7747 Foothill Boulevard, Sunland, CA 91402",
        "cat": "parks"
      },
      "geometry": {
        "coordinates": [-118.300713, 34.257878],
        "type": "Point"
      },
      "id": "9e19c14e2247fafa7aee74cfb74a9279"
    },
    {
      "type": "Feature",
      "properties": {
        "isInLABounds": "TRUE",
        "councildist": "14",
        "facility": "Gladys Park",
        "address": "6th & Gladys St., Los Angeles, CA 90021",
        "cat": "parks"
      },
      "geometry": {
        "coordinates": [-118.242464, 34.04028],
        "type": "Point"
      },
      "id": "9ebafbe158602271bad04a2777c72f0e"
    },
    {
      "type": "Feature",
      "properties": {
        "isInLABounds": "TRUE",
        "councildist": "12",
        "facility": "Mae Boyar Park",
        "address": "23936 Highlander Rd., Canoga Park, CA 91307",
        "cat": "parks"
      },
      "geometry": {
        "coordinates": [-118.646873, 34.195444],
        "type": "Point"
      },
      "id": "9ebb9325c4914f03f692adc7e4a77f51"
    },
    {
      "type": "Feature",
      "properties": {
        "isInLABounds": "TRUE",
        "councildist": "9",
        "facility": "Mckinley Avenue Park",
        "address": "4916 South Mckinley Avenue, Los Angeles, CA 90011",
        "cat": "parks"
      },
      "geometry": {
        "coordinates": [-118.260703, 33.998754],
        "type": "Point"
      },
      "id": "9ebd3d0ccb0b2c5f422a7010b83c9852"
    },
    {
      "type": "Feature",
      "properties": {
        "isInLABounds": "TRUE",
        "councildist": "4",
        "facility": "Laurel Canyon Mulholland Park",
        "address": "8100 Mulholland Dr., Los Angeles, CA 90046",
        "cat": "parks"
      },
      "geometry": {
        "coordinates": [-118.37535, 34.123556],
        "type": "Point"
      },
      "id": "9f4a87592f6b4706eab7466793a38ded"
    },
    {
      "type": "Feature",
      "properties": {
        "isInLABounds": "TRUE",
        "councildist": "9",
        "facility": "Wall Street Park",
        "address": "8620 WALL STREET LOS ANGELES, CA 90003",
        "cat": "parks"
      },
      "geometry": {
        "coordinates": [-118.271454, 33.959497],
        "type": "Point"
      },
      "id": "a01517d7e8581139b54573b1d1d86db6"
    },
    {
      "type": "Feature",
      "properties": {
        "isInLABounds": "TRUE",
        "councildist": "1",
        "facility": "Alvarado Terrace Park",
        "address": "1342 S. Alvarado Terrace, Los Angeles, CA 90006",
        "cat": "parks"
      },
      "geometry": {
        "coordinates": [-118.281107, 34.044908],
        "type": "Point"
      },
      "id": "a0c5b7ba77351c58319fce3c9963d10a"
    },
    {
      "type": "Feature",
      "properties": {
        "isInLABounds": "TRUE",
        "councildist": "12",
        "facility": "Mason Recreation Center",
        "address": "10500 Mason Ave., Chatsworth, CA 91311",
        "cat": "parks"
      },
      "geometry": {
        "coordinates": [-118.579834, 34.260858],
        "type": "Point"
      },
      "id": "a1dbc0d28f30fd8dd4f1a97eda8f7049"
    },
    {
      "type": "Feature",
      "properties": {
        "isInLABounds": "TRUE",
        "councildist": "2",
        "facility": "Strathern Park North",
        "address": "North of Strathern Street and West of Whitsett Avenue, Sun Valley, CA 91605",
        "cat": "parks"
      },
      "geometry": {
        "coordinates": [-118.405278, 34.21533],
        "type": "Point"
      },
      "id": "a232d99f1544cea1eee830361d5fb32e"
    },
    {
      "type": "Feature",
      "properties": {
        "isInLABounds": "TRUE",
        "councildist": "9",
        "facility": "Gage And Avalon Triangle Pocket Park",
        "address": "6301 SOUTH AVALON BOULEVARD LOS ANGELES, CA 90003",
        "cat": "parks"
      },
      "geometry": {
        "coordinates": [-118.265283, 33.982398],
        "type": "Point"
      },
      "id": "a28a8a81fe4c95991cb1c0ea2aa2b4f2"
    },
    {
      "type": "Feature",
      "properties": {
        "isInLABounds": "TRUE",
        "councildist": "13",
        "facility": "Seily Rodriguez Park",
        "address": "5707 Lexington Ave., Hollywood, CA 90038",
        "cat": "parks"
      },
      "geometry": {
        "coordinates": [-118.313957, 34.093048],
        "type": "Point"
      },
      "id": "a34395e7253f103a9443ba2659673fae"
    },
    {
      "type": "Feature",
      "properties": {
        "isInLABounds": "TRUE",
        "councildist": "11",
        "facility": "Crestwood Hills Recreation Center",
        "address": "1000 Hanley Ave., Los Angeles, CA 90049",
        "cat": "parks"
      },
      "geometry": {
        "coordinates": [-118.48883, 34.076784],
        "type": "Point"
      },
      "id": "a3f8c8fdd580209d7f86b32132462b7a"
    },
    {
      "type": "Feature",
      "properties": {
        "isInLABounds": "TRUE",
        "councildist": "10",
        "facility": "Seoul International Park (Ardmore Recreation Center)",
        "address": "3250 San Marino St., Los Angeles, CA 90006",
        "cat": "parks"
      },
      "geometry": {
        "coordinates": [-118.301102, 34.053834],
        "type": "Point"
      },
      "id": "a42b6531f214abbc4ed5c263f906aeb6"
    },
    {
      "type": "Feature",
      "properties": {
        "isInLABounds": "TRUE",
        "councildist": "13",
        "facility": "Silverlake Dog Park",
        "address": "1863 Silver Lake Blvd, Los Angeles, CA 90026",
        "cat": "dog"
      },
      "geometry": {
        "coordinates": [-118.264268, 34.092203],
        "type": "Point"
      },
      "id": "a5ad69cd715fe546e532636f07c85ca3"
    },
    {
      "type": "Feature",
      "properties": {
        "isInLABounds": "TRUE",
        "councildist": "12",
        "facility": "Vanalden Park",
        "address": "8956 Vanalden Ave., Northridge, CA 91324",
        "cat": "parks"
      },
      "geometry": {
        "coordinates": [-118.548498, 34.233394],
        "type": "Point"
      },
      "id": "a7ee2c8bc786f317ae3da67c986953a2"
    },
    {
      "type": "Feature",
      "properties": {
        "isInLABounds": "TRUE",
        "councildist": "8",
        "facility": "105Th Street Pocket Park",
        "address": "609 West 105th Street, Los Angeles, CA 90044",
        "cat": "parks"
      },
      "geometry": {
        "coordinates": [-118.286402, 33.941104],
        "type": "Point"
      },
      "id": "a83c2f3ddadea5c24595dd41d2916467"
    },
    {
      "type": "Feature",
      "properties": {
        "isInLABounds": "TRUE",
        "councildist": "5",
        "facility": "Occidental Parkway",
        "address": "Occidental Parkway (Between 6th Street and Beverly Boulevard) Los Angeles, CA",
        "cat": "parks"
      },
      "geometry": {
        "coordinates": [-118.328251, 34.075734],
        "type": "Point"
      },
      "id": "a93e8911f3079f4cd924f07857b5a55e"
    },
    {
      "type": "Feature",
      "properties": {
        "isInLABounds": "TRUE",
        "councildist": "5",
        "facility": "Carthay Circle Park",
        "address": "McCarthy Vista & Crescent Hghts. Los Angeles, CA 90048",
        "cat": "parks"
      },
      "geometry": {
        "coordinates": [-118.367312, 34.061448],
        "type": "Point"
      },
      "id": "aab6bb063c0c4fa29c9944ea63cc7741"
    },
    {
      "type": "Feature",
      "properties": {
        "isInLABounds": "TRUE",
        "councildist": "2",
        "facility": "South Weddington Park",
        "address": "10600 Valleyheart Dr. Studio City, CA 91604",
        "cat": "parks"
      },
      "geometry": {
        "coordinates": [-118.364822, 34.140993],
        "type": "Point"
      },
      "id": "ab3dd2bfaedc5d855bdde779c3ae53b8"
    },
    {
      "type": "Feature",
      "properties": {
        "isInLABounds": "TRUE",
        "councildist": "4",
        "facility": "Encino Park",
        "address": "16953 Ventura Blvd., Encino, CA 91316",
        "cat": "parks"
      },
      "geometry": {
        "coordinates": [-118.502681, 34.16091],
        "type": "Point"
      },
      "id": "ab6bc6cb0972ea9a531b61c1b200fb6d"
    },
    {
      "type": "Feature",
      "properties": {
        "isInLABounds": "TRUE",
        "councildist": "12",
        "facility": "Bell Canyon Park",
        "address": "24544 W. BELL CANYON RD.",
        "cat": "parks"
      },
      "geometry": {
        "coordinates": [-118.664923, 34.196271],
        "type": "Point"
      },
      "id": "abcfc6abdf6c0166b952dca95c22d2bc"
    },
    {
      "type": "Feature",
      "properties": {
        "isInLABounds": "TRUE",
        "councildist": "12",
        "facility": "Taxco Trails Park",
        "address": "23367 Ingomar St., West Hills, CA 91304",
        "cat": "parks"
      },
      "geometry": {
        "coordinates": [-118.638329, 34.21262],
        "type": "Point"
      },
      "id": "ac0f4e3aa26932d6bc9c9e84bba12f7d"
    },
    {
      "type": "Feature",
      "properties": {
        "isInLABounds": "TRUE",
        "councildist": "15",
        "facility": "Harbor Highlands Park",
        "address": "825 Capitol St., San Pedro, CA 90731",
        "cat": "parks"
      },
      "geometry": {
        "coordinates": [-118.295041, 33.75821],
        "type": "Point"
      },
      "id": "af5dc6f7e58ec6c340e7510a9e85a918"
    },
    {
      "type": "Feature",
      "properties": {
        "isInLABounds": "TRUE",
        "councildist": "5",
        "facility": "Beverly Glen Park",
        "address": "2448 Angelo Dr, Los Angeles, CA 90077",
        "cat": "parks"
      },
      "geometry": {
        "coordinates": [-118.441801, 34.1151],
        "type": "Point"
      },
      "id": "aff5e22c6fd285aefdcde80af6d83258"
    },
    {
      "type": "Feature",
      "properties": {
        "isInLABounds": "TRUE",
        "councildist": "1",
        "facility": "Albion Riverside Park",
        "address": "1739 N. Albion St. LA, CA 90031",
        "cat": "parks"
      },
      "geometry": {
        "coordinates": [-118.222537, 34.069162],
        "type": "Point"
      },
      "id": "b12862a673c429a0b17cafecb6d770fd"
    },
    {
      "type": "Feature",
      "properties": {
        "isInLABounds": "TRUE",
        "councildist": "4",
        "facility": "Park Center (Griffith Park)",
        "address": "4730 Crystal Springs Dr., Los Angeles, CA 90027",
        "cat": "parks"
      },
      "geometry": {
        "coordinates": [-118.280455, 34.132721],
        "type": "Point"
      },
      "id": "b436c32de5b89c0928e78c64d86deaf7"
    },
    {
      "type": "Feature",
      "properties": {
        "isInLABounds": "TRUE",
        "councildist": "3",
        "facility": "Runnymede Park",
        "address": "20200 Runnymede St., Winnetka, CA 91306",
        "cat": "parks"
      },
      "geometry": {
        "coordinates": [-118.57305, 34.20461],
        "type": "Point"
      },
      "id": "b5a0568cf249d8409ba1031458d23094"
    },
    {
      "type": "Feature",
      "properties": {
        "isInLABounds": "FALSE",
        "councildist": "",
        "facility": "William S. Hart Park",
        "address": "8341 De Longpre Ave., Los Angeles, CA 90069",
        "cat": "parks"
      },
      "geometry": {
        "coordinates": [-118.371546, 34.095394],
        "type": "Point"
      },
      "id": "b7416cd3d15edda9f1ed3595b879e7a4"
    },
    {
      "type": "Feature",
      "properties": {
        "isInLABounds": "TRUE",
        "councildist": "7",
        "facility": "Fox And Laurel Park",
        "address": "14353 Fox St, San Fernando, CA 91340",
        "cat": "parks"
      },
      "geometry": {
        "coordinates": [-118.446337, 34.271641],
        "type": "Point"
      },
      "id": "b796cdc6823a55ed6277055f71aa507b"
    },
    {
      "type": "Feature",
      "properties": {
        "isInLABounds": "TRUE",
        "councildist": "12",
        "facility": "Four Oaks Park",
        "address": "7499 Melba Ave, West Hills, CA 91307",
        "cat": "parks"
      },
      "geometry": {
        "coordinates": [-118.634439, 34.205228],
        "type": "Point"
      },
      "id": "b82ffb8de2f110e77f410923beeef5a6"
    },
    {
      "type": "Feature",
      "properties": {
        "isInLABounds": "TRUE",
        "councildist": "14",
        "facility": "San Julian Park",
        "address": "312 E 5th St, Los Angeles, CA 90013",
        "cat": "parks"
      },
      "geometry": {
        "coordinates": [-118.245261, 34.04442],
        "type": "Point"
      },
      "id": "b86de5d77a5a1c6828871e4dfd92667e"
    },
    {
      "type": "Feature",
      "properties": {
        "isInLABounds": "TRUE",
        "councildist": "7",
        "facility": "Hubert H. Humphrey Recreation Center",
        "address": "12560 Filmore St., Pacoima, CA 91331",
        "cat": "parks"
      },
      "geometry": {
        "coordinates": [-118.406452, 34.28129],
        "type": "Point"
      },
      "id": "b8738d3af3aba3983338de508bf2685d"
    },
    {
      "type": "Feature",
      "properties": {
        "isInLABounds": "TRUE",
        "councildist": "14",
        "facility": "York Boulevard Park",
        "address": "4948 York Blvd Los Angeles, CA 90042",
        "cat": "parks"
      },
      "geometry": {
        "coordinates": [-118.207511, 34.121313],
        "type": "Point"
      },
      "id": "bc26c2d78edffc595260102f4ff28dba"
    },
    {
      "type": "Feature",
      "properties": {
        "isInLABounds": "TRUE",
        "councildist": "7",
        "facility": "Roger Jessup Park",
        "address": "12467 Osborne St, Pacoima, CA 91331",
        "cat": "parks"
      },
      "geometry": {
        "coordinates": [-118.404991, 34.259316],
        "type": "Point"
      },
      "id": "be54514271e93a9cdcbf4edd29d24309"
    },
    {
      "type": "Feature",
      "properties": {
        "isInLABounds": "TRUE",
        "councildist": "15",
        "facility": "Bandini Canyon Park",
        "address": "West Sepulveda St. Between Bandinist and Marshall Court, San Pedro, CA 90731",
        "cat": "parks"
      },
      "geometry": {
        "coordinates": [-118.294971, 33.746248],
        "type": "Point"
      },
      "id": "be660485371132a3c26cf319ec947dcc"
    },
    {
      "type": "Feature",
      "properties": {
        "isInLABounds": "TRUE",
        "councildist": "10",
        "facility": "Genesee Avenue Park",
        "address": "2330 S. Genesee Ave., Los Angeles, CA 90019",
        "cat": "parks"
      },
      "geometry": {
        "coordinates": [-118.368415, 34.036807],
        "type": "Point"
      },
      "id": "bf2e03e9e8228d80eba316315eacb099"
    },
    {
      "type": "Feature",
      "properties": {
        "isInLABounds": "TRUE",
        "councildist": "8",
        "facility": "111Th Place Pocket Park",
        "address": "207 E. 111th Place, Los Angeles, CA",
        "cat": "parks"
      },
      "geometry": {
        "coordinates": [-118.271265, 33.934163],
        "type": "Point"
      },
      "id": "c036e6379bbc57a052fd3e7988439363"
    },
    {
      "type": "Feature",
      "properties": {
        "isInLABounds": "TRUE",
        "councildist": "7",
        "facility": "Sunland Park",
        "address": "8651 Foothill Blvd., Sunland, CA 91040",
        "cat": "parks"
      },
      "geometry": {
        "coordinates": [-118.32172, 34.260438],
        "type": "Point"
      },
      "id": "c2811d53394e315247cd824f0961a1ac"
    },
    {
      "type": "Feature",
      "properties": {
        "isInLABounds": "TRUE",
        "councildist": "6",
        "facility": "Sheldon Arleta Park",
        "address": "12455 Wicks St Los Angeles, CA 91352",
        "cat": "parks"
      },
      "geometry": {
        "coordinates": [-118.408332, 34.228365],
        "type": "Point"
      },
      "id": "c32ca3bc7305e28d39d09c3ee6ec521d"
    },
    {
      "type": "Feature",
      "properties": {
        "isInLABounds": "TRUE",
        "councildist": "14",
        "facility": "Rose Hill Park",
        "address": "3606 N. Boundary Ave., Los Angeles, CA 90032",
        "cat": "parks"
      },
      "geometry": {
        "coordinates": [-118.192156, 34.08788],
        "type": "Point"
      },
      "id": "c372d617373c94823f727e814cbfd872"
    },
    {
      "type": "Feature",
      "properties": {
        "isInLABounds": "TRUE",
        "councildist": "14",
        "facility": "Guardia Park (Formerly Known As El Sereno North Park)",
        "address": "4410 Garden Homes Ave., Los Angeles. CA 90032",
        "cat": "parks"
      },
      "geometry": {
        "coordinates": [-118.167923, 34.097651],
        "type": "Point"
      },
      "id": "c3ac1488d9fccaa88be78880d6a2a388"
    },
    {
      "type": "Feature",
      "properties": {
        "isInLABounds": "TRUE",
        "councildist": "7",
        "facility": "Little Landers Park",
        "address": "10110 Commerce Ave., Tujunga, CA 91402",
        "cat": "parks"
      },
      "geometry": {
        "coordinates": [-118.288233, 34.252647],
        "type": "Point"
      },
      "id": "c49a12ec1d519cd95f972321941839bb"
    },
    {
      "type": "Feature",
      "properties": {
        "isInLABounds": "TRUE",
        "councildist": "15",
        "facility": "Grape Street Pocket Park",
        "address": "10726 Grape St., Los Angeles, CA 90059",
        "cat": "parks"
      },
      "geometry": {
        "coordinates": [-118.236644, 33.938138],
        "type": "Point"
      },
      "id": "c569fd1575d6497e3a3e8c3038d67a5f"
    },
    {
      "type": "Feature",
      "properties": {
        "isInLABounds": "TRUE",
        "councildist": "12",
        "facility": "O'Melveny Park",
        "address": "17300 Sesnon Blvd., Granada Hills, CA 91344",
        "cat": "parks"
      },
      "geometry": {
        "coordinates": [-118.513616, 34.309395],
        "type": "Point"
      },
      "id": "ca28f48ebb2be547f617510620d52337"
    },
    {
      "type": "Feature",
      "properties": {
        "isInLABounds": "TRUE",
        "councildist": "9",
        "facility": "Orchard Avenue Park",
        "address": "4600 South Orchard Avenue, Los Angeles, CA 90037",
        "cat": "parks"
      },
      "geometry": {
        "coordinates": [-118.288884, 34.001555],
        "type": "Point"
      },
      "id": "ccb095af14cdfaf2d57d8bab014a0d83"
    },
    {
      "type": "Feature",
      "properties": {
        "isInLABounds": "TRUE",
        "councildist": "15",
        "facility": "Watts Serenity Park Aka Monitor Avenue",
        "address": "11300 Monitor Ave. Los Angeles, CA 90059",
        "cat": "parks"
      },
      "geometry": {
        "coordinates": [-118.239951, 33.931642],
        "type": "Point"
      },
      "id": "ccf862b297a85231c248a745e45b7351"
    },
    {
      "type": "Feature",
      "properties": {
        "isInLABounds": "TRUE",
        "councildist": "13",
        "facility": "Glenhurst Park",
        "address": "2932 Glenhurst Ave., Los Angeles, CA 90039",
        "cat": "parks"
      },
      "geometry": {
        "coordinates": [-118.252799, 34.110205],
        "type": "Point"
      },
      "id": "cd3a8c5f5bf68a02fc6fd8149fdacdad"
    },
    {
      "type": "Feature",
      "properties": {
        "isInLABounds": "TRUE",
        "councildist": "7",
        "facility": "Telfair Park",
        "address": "15721 Cobalt Avenue, Symlar, CA 91342",
        "cat": "parks"
      },
      "geometry": {
        "coordinates": [-118.473337, 34.304373],
        "type": "Point"
      },
      "id": "cd412c7ae38f13cbf861d743a3325911"
    },
    {
      "type": "Feature",
      "properties": {
        "isInLABounds": "TRUE",
        "councildist": "14",
        "facility": "Garvanza Park",
        "address": "6240 East Meridian Street, Los Angeles, CA 90042",
        "cat": "parks"
      },
      "geometry": {
        "coordinates": [-118.180688, 34.119454],
        "type": "Point"
      },
      "id": "cd773e381ec0c7b0af905af435564797"
    },
    {
      "type": "Feature",
      "properties": {
        "isInLABounds": "TRUE",
        "councildist": "12",
        "facility": "Aliso Canyon Park",
        "address": "18041 Rinaldi St, Granada Hills, CA 91344",
        "cat": "parks"
      },
      "geometry": {
        "coordinates": [-118.526975, 34.278971],
        "type": "Point"
      },
      "id": "cda958283635c0c293b0e8b0e8c7af2d"
    },
    {
      "type": "Feature",
      "properties": {
        "isInLABounds": "TRUE",
        "councildist": "1",
        "facility": "Downey Recreation Center",
        "address": "1739 Albion St, Los Angeles, CA 90031",
        "cat": "parks"
      },
      "geometry": {
        "coordinates": [-118.222855, 34.070367],
        "type": "Point"
      },
      "id": "ce622f3de30094b8a7d95827931c1baa"
    },
    {
      "type": "Feature",
      "properties": {
        "isInLABounds": "TRUE",
        "councildist": "11",
        "facility": "Venice Of America Centennial Park",
        "address": "501 S Venice Blvd, Venice, CA 90291",
        "cat": "parks"
      },
      "geometry": {
        "coordinates": [-118.463676, 33.988482],
        "type": "Point"
      },
      "id": "ce8265eca675ce92239583b6d31d6dbc"
    },
    {
      "type": "Feature",
      "properties": {
        "isInLABounds": "TRUE",
        "councildist": "13",
        "facility": "Dorothy & Benjamin Smith Park",
        "address": "7020 Franklin Ave., Los Angeles, CA 90028",
        "cat": "parks"
      },
      "geometry": {
        "coordinates": [-118.342913, 34.103945],
        "type": "Point"
      },
      "id": "cf5c9c421dd582b4eed265a9c5278218"
    },
    {
      "type": "Feature",
      "properties": {
        "isInLABounds": "TRUE",
        "councildist": "1",
        "facility": "Glassell Park",
        "address": "3650 Verdugo Rd., Los Angeles, CA 90065",
        "cat": "parks"
      },
      "geometry": {
        "coordinates": [-118.23352, 34.115974],
        "type": "Point"
      },
      "id": "d0450f2acb5c1f779e238c234a2346b0"
    },
    {
      "type": "Feature",
      "properties": {
        "isInLABounds": "TRUE",
        "councildist": "1",
        "facility": "Moon Canyon Park",
        "address": "911 North Museum Drive, Los Angeles, CA 90065",
        "cat": "parks"
      },
      "geometry": {
        "coordinates": [-118.213851, 34.107836],
        "type": "Point"
      },
      "id": "d0fac3342fa02b232f105d96093c08d3"
    },
    {
      "type": "Feature",
      "properties": {
        "isInLABounds": "TRUE",
        "councildist": "9",
        "facility": "Hoover Gage Mini Park",
        "address": "S Hoover St and W Gage Ave, Los Angeles, CA 90044",
        "cat": "parks"
      },
      "geometry": {
        "coordinates": [-118.287515, 33.98222],
        "type": "Point"
      },
      "id": "d1a219c89c36405ec4c0c1c04fb9442f"
    },
    {
      "type": "Feature",
      "properties": {
        "isInLABounds": "TRUE",
        "councildist": "1",
        "facility": "Elysian Park",
        "address": "929 Academy Road, Los Angeles, CA 90012",
        "cat": "parks"
      },
      "geometry": {
        "coordinates": [-118.236581, 34.083804],
        "type": "Point"
      },
      "id": "d1eaffb25cb3629867d30594373e0cd5"
    },
    {
      "type": "Feature",
      "properties": {
        "isInLABounds": "TRUE",
        "councildist": "12",
        "facility": "Limekiln Canyon Park",
        "address": "19585 Rinaldi St. Northridge, CA 91326",
        "cat": "parks"
      },
      "geometry": {
        "coordinates": [-118.560248, 34.275793],
        "type": "Point"
      },
      "id": "d2239473791543a3fbcfead2ff292f9a"
    },
    {
      "type": "Feature",
      "properties": {
        "isInLABounds": "TRUE",
        "councildist": "5",
        "facility": "Irving Schachter Park ( Formerly Beverwill Mini Park )",
        "address": "2599 Beverwill Dr., Los Angeles, CA 90064",
        "cat": "parks"
      },
      "geometry": {
        "coordinates": [-118.398997, 34.039918],
        "type": "Point"
      },
      "id": "d2da27f543541420e15ba31518c2e588"
    },
    {
      "type": "Feature",
      "properties": {
        "isInLABounds": "TRUE",
        "councildist": "4",
        "facility": "Laurel Canyon Dog Park",
        "address": "8260 Mulholland Dr, Los Angeles, CA 90046",
        "cat": "dog"
      },
      "geometry": {
        "coordinates": [-118.379978, 34.121367],
        "type": "Point"
      },
      "id": "d3014cac4fd7e65304a462e003f59a17"
    },
    {
      "type": "Feature",
      "properties": {
        "isInLABounds": "TRUE",
        "councildist": "11",
        "facility": "Canal Park (A.K.A. Linnie Canal Park)",
        "address": "200 Linnie Canal, Venice Los Angeles, CA 90291",
        "cat": "parks"
      },
      "geometry": {
        "coordinates": [-118.46661, 33.984784],
        "type": "Point"
      },
      "id": "d36aeb64482f1380105ce7baa90b8b0f"
    },
    {
      "type": "Feature",
      "properties": {
        "isInLABounds": "TRUE",
        "councildist": "15",
        "facility": "Leland Park",
        "address": "863 S. Herbert Ave., San Pedro, CA 90731",
        "cat": "parks"
      },
      "geometry": {
        "coordinates": [-118.294911, 33.751038],
        "type": "Point"
      },
      "id": "d3b7c8feb7cf38a6750d253f1957de9b"
    },
    {
      "type": "Feature",
      "properties": {
        "isInLABounds": "TRUE",
        "councildist": "4",
        "facility": "Coldwater Canyon Park",
        "address": "12601 N. Mulholland Dr., Beverly Hills, CA 90210",
        "cat": "parks"
      },
      "geometry": {
        "coordinates": [-118.403045, 34.129158],
        "type": "Point"
      },
      "id": "d44e446cc8ce4350c29f616f6d92b9f1"
    },
    {
      "type": "Feature",
      "properties": {
        "isInLABounds": "TRUE",
        "councildist": "2",
        "facility": "Whitnall Off-Leash Dog Park",
        "address": "5801 1/2 Whitnall Highway North Hollywood, CA 91601",
        "cat": "dog"
      },
      "geometry": {
        "coordinates": [-118.358955, 34.173839],
        "type": "Point"
      },
      "id": "d488bdc1c5c275c277fadfcc8902a6f3"
    },
    {
      "type": "Feature",
      "properties": {
        "isInLABounds": "TRUE",
        "councildist": "4",
        "facility": "Moorpark Park",
        "address": "12061 Moorpark St., Studio City, CA 91604",
        "cat": "parks"
      },
      "geometry": {
        "coordinates": [-118.396169, 34.150487],
        "type": "Point"
      },
      "id": "d60b4027d28c19f1c733f3fd149d76b7"
    },
    {
      "type": "Feature",
      "properties": {
        "isInLABounds": "TRUE",
        "councildist": "14",
        "facility": "Richard Alatorre Park",
        "address": "Figueroa and 134 Freeway, Los Angeles, CA 90041",
        "cat": "parks"
      },
      "geometry": {
        "coordinates": [-118.184216, 34.143978],
        "type": "Point"
      },
      "id": "d959cfb6eefa719ed5dcf6d7772a4a9c"
    },
    {
      "type": "Feature",
      "properties": {
        "isInLABounds": "TRUE",
        "councildist": "13",
        "facility": "Carlton Way Park",
        "address": "5927 Carlton Way Los Angeles, CA 90028",
        "cat": "parks"
      },
      "geometry": {
        "coordinates": [-118.318951, 34.100769],
        "type": "Point"
      },
      "id": "d9801b928dd3637daf85c925ce461c5f"
    },
    {
      "type": "Feature",
      "properties": {
        "isInLABounds": "TRUE",
        "councildist": "2",
        "facility": "Strathern Park West",
        "address": "12541 Saticoy St., Sun Valley, CA 91605",
        "cat": "parks"
      },
      "geometry": {
        "coordinates": [-118.408095, 34.21272],
        "type": "Point"
      },
      "id": "d993a1d1a0084c5f84672a596f54abbd"
    },
    {
      "type": "Feature",
      "properties": {
        "isInLABounds": "TRUE",
        "councildist": "1",
        "facility": "Ord And Yale Street Park",
        "address": "524 Ord St, Los Angeles, CA 90012",
        "cat": "parks"
      },
      "geometry": {
        "coordinates": [-118.241503, 34.060951],
        "type": "Point"
      },
      "id": "d998615cff84326f57c45f30cc3fe2f5"
    },
    {
      "type": "Feature",
      "properties": {
        "isInLABounds": "TRUE",
        "councildist": "13",
        "facility": "Yucca Park",
        "address": "6671 Yucca St., Hollywood, CA 90028",
        "cat": "parks"
      },
      "geometry": {
        "coordinates": [-118.335, 34.103333],
        "type": "Point"
      },
      "id": "da6019a4bd0ee6f029c396b2e1d07331"
    },
    {
      "type": "Feature",
      "properties": {
        "isInLABounds": "TRUE",
        "councildist": "7",
        "facility": "Mcgroarty Park",
        "address": "7570 Mcgroarty Terrace, Tujunga, CA 91042",
        "cat": "parks"
      },
      "geometry": {
        "coordinates": [-118.297695, 34.249867],
        "type": "Point"
      },
      "id": "daa2d413a5257abda11af9c613717311"
    },
    {
      "type": "Feature",
      "properties": {
        "isInLABounds": "TRUE",
        "councildist": "4",
        "facility": "Sunnynook River Park",
        "address": "Los Angeles River Bike Path, Los Angeles CA 90039",
        "cat": "parks"
      },